[
	{
		"Route": "Marmot Arete",
		"Location": "Corner Area > Loch Lomond > Idaho Springs > Colorado",
		"URL": "https://www.mountainproject.com/route/106051062/marmot-arete",
		"Avg Stars": 3,
		"Your Stars": -1,
		"Route Type": "Trad, TR, Alpine",
		"Rating": "5.9-",
		"Pitches": 1,
		"Length": 65,
		"Area Latitude": 39.8328,
		"Area Longitude": -105.6771
	},
	{
		"Route": "Fox Trot",
		"Location": "Olympic Wall > Outrageous Overhangs Area > Independence Pass > Colorado",
		"URL": "https://www.mountainproject.com/route/106005674/fox-trot",
		"Avg Stars": 3.1,
		"Your Stars": -1,
		"Route Type": "Sport",
		"Rating": 5.8,
		"Pitches": 1,
		"Length": 80,
		"Area Latitude": 39.12035,
		"Area Longitude": -106.69819
	},
	{
		"Route": "Left Overs",
		"Location": "Turkey Rock > Upper Boulderfield Area > Independence Pass > Colorado",
		"URL": "https://www.mountainproject.com/route/119314001/left-overs",
		"Avg Stars": 3,
		"Your Stars": -1,
		"Route Type": "Trad, TR",
		"Rating": "5.7+",
		"Pitches": 1,
		"Length": 90,
		"Area Latitude": 39.12459,
		"Area Longitude": -106.67171
	},
	{
		"Route": "Surfing in a Snowstorm",
		"Location": "The Wave > Wild Ridge Area > Independence Pass > Colorado",
		"URL": "https://www.mountainproject.com/route/115401612/surfing-in-a-snowstorm",
		"Avg Stars": 3.3,
		"Your Stars": -1,
		"Route Type": "Sport, Alpine",
		"Rating": 5.6,
		"Pitches": 1,
		"Length": 80,
		"Area Latitude": 39.12992,
		"Area Longitude": -106.67446
	},
	{
		"Route": "Blue Horizon",
		"Location": "The Wave > Wild Ridge Area > Independence Pass > Colorado",
		"URL": "https://www.mountainproject.com/route/121013379/blue-horizon",
		"Avg Stars": 3,
		"Your Stars": -1,
		"Route Type": "Sport, Alpine",
		"Rating": "5.8 PG13",
		"Pitches": 1,
		"Length": 90,
		"Area Latitude": 39.12992,
		"Area Longitude": -106.67446
	},
	{
		"Route": "Every Which Way But Loose",
		"Location": "Curve Block > Georgetown > Colorado",
		"URL": "https://www.mountainproject.com/route/107767419/every-which-way-but-loose",
		"Avg Stars": 3,
		"Your Stars": -1,
		"Route Type": "TR",
		"Rating": 5.9,
		"Pitches": 1,
		"Length": 50,
		"Area Latitude": 39.68095,
		"Area Longitude": -105.70238
	},
	{
		"Route": "Sunshine Slab",
		"Location": "Zuma Rock > Keystone a.k.a. Montezuma > Colorado",
		"URL": "https://www.mountainproject.com/route/119776530/sunshine-slab",
		"Avg Stars": 3,
		"Your Stars": -1,
		"Route Type": "Sport",
		"Rating": 5.8,
		"Pitches": 1,
		"Length": 40,
		"Area Latitude": 39.60647,
		"Area Longitude": -105.91576
	},
	{
		"Route": "Five Oh Shadow",
		"Location": "Porcupine Rock > Keystone a.k.a. Montezuma > Colorado",
		"URL": "https://www.mountainproject.com/route/118829183/five-oh-shadow",
		"Avg Stars": 3.3,
		"Your Stars": -1,
		"Route Type": "Sport",
		"Rating": 5.9,
		"Pitches": 1,
		"Length": 70,
		"Area Latitude": 39.61037,
		"Area Longitude": -105.92688
	},
	{
		"Route": "I Can Hear You Now!",
		"Location": "Transmitter Tower > Buena Vista > Colorado",
		"URL": "https://www.mountainproject.com/route/105854269/i-can-hear-you-now",
		"Avg Stars": 3,
		"Your Stars": -1,
		"Route Type": "Sport",
		"Rating": 5.9,
		"Pitches": 1,
		"Length": 60,
		"Area Latitude": 38.88771,
		"Area Longitude": -106.1382
	},
	{
		"Route": "Calling Jackson Pollock",
		"Location": "Transmitter Tower > Buena Vista > Colorado",
		"URL": "https://www.mountainproject.com/route/119542531/calling-jackson-pollock",
		"Avg Stars": 3,
		"Your Stars": -1,
		"Route Type": "Sport",
		"Rating": "5.9-",
		"Pitches": 1,
		"Length": 55,
		"Area Latitude": 38.88771,
		"Area Longitude": -106.1382
	},
	{
		"Route": "Mysterious Maiden",
		"Location": "There is Spice to Life Tower. > Buena Vista > Colorado",
		"URL": "https://www.mountainproject.com/route/106475060/mysterious-maiden",
		"Avg Stars": 2.8,
		"Your Stars": -1,
		"Route Type": "Sport",
		"Rating": "5.9-",
		"Pitches": 1,
		"Length": 90,
		"Area Latitude": 38.88964,
		"Area Longitude": -106.13994
	},
	{
		"Route": "Fatter Than Santa",
		"Location": "Christmas Crag > Buena Vista > Colorado",
		"URL": "https://www.mountainproject.com/route/108619269/fatter-than-santa",
		"Avg Stars": 3.5,
		"Your Stars": -1,
		"Route Type": "Trad, TR",
		"Rating": "5.6 R",
		"Pitches": 1,
		"Length": 60,
		"Area Latitude": 38.89867,
		"Area Longitude": -106.0917
	},
	{
		"Route": "Wyld Stallynz Arete Variation",
		"Location": "The Rock Pile > Buena Vista > Colorado",
		"URL": "https://www.mountainproject.com/route/114428047/wyld-stallynz-arete-variation",
		"Avg Stars": 3.6,
		"Your Stars": -1,
		"Route Type": "Sport",
		"Rating": "5.8 PG13",
		"Pitches": 1,
		"Length": 90,
		"Area Latitude": 38.85063,
		"Area Longitude": -106.06629
	},
	{
		"Route": "Don't Mess With The Reaper",
		"Location": "The Rock Pile > Buena Vista > Colorado",
		"URL": "https://www.mountainproject.com/route/113712029/dont-mess-with-the-reaper",
		"Avg Stars": 3.3,
		"Your Stars": -1,
		"Route Type": "Trad, TR",
		"Rating": "5.8+",
		"Pitches": 1,
		"Length": 100,
		"Area Latitude": 38.85063,
		"Area Longitude": -106.06629
	},
	{
		"Route": "Lost paddle",
		"Location": "The River Chamber > Buena Vista > Colorado",
		"URL": "https://www.mountainproject.com/route/118641763/lost-paddle",
		"Avg Stars": 3,
		"Your Stars": -1,
		"Route Type": "Sport",
		"Rating": "5.9+",
		"Pitches": 1,
		"Length": 50,
		"Area Latitude": 38.86876,
		"Area Longitude": -106.14413
	},
	{
		"Route": "Cooky",
		"Location": "The Museum > Buena Vista > Colorado",
		"URL": "https://www.mountainproject.com/route/115401980/cooky",
		"Avg Stars": 3,
		"Your Stars": -1,
		"Route Type": "Trad, TR",
		"Rating": 5.9,
		"Pitches": 1,
		"Length": 60,
		"Area Latitude": 38.87436,
		"Area Longitude": -106.13431
	},
	{
		"Route": "Tiger Trout",
		"Location": "Trout Climbing in America > Buena Vista > Colorado",
		"URL": "https://www.mountainproject.com/route/123078530/tiger-trout",
		"Avg Stars": 3,
		"Your Stars": -1,
		"Route Type": "Sport",
		"Rating": 5.9,
		"Pitches": 1,
		"Length": 80,
		"Area Latitude": 38.85839,
		"Area Longitude": -105.98654
	},
	{
		"Route": "Ken Trout",
		"Location": "Trout Climbing in America > Buena Vista > Colorado",
		"URL": "https://www.mountainproject.com/route/123129578/ken-trout",
		"Avg Stars": 3,
		"Your Stars": -1,
		"Route Type": "Sport",
		"Rating": "5.9-",
		"Pitches": 1,
		"Length": 70,
		"Area Latitude": 38.85839,
		"Area Longitude": -105.98654
	},
	{
		"Route": "Where's My Stimulus Check?",
		"Location": "Obscura > Lilliput > Buena Vista > Colorado",
		"URL": "https://www.mountainproject.com/route/119383828/wheres-my-stimulus-check",
		"Avg Stars": 2.9,
		"Your Stars": -1,
		"Route Type": "Sport",
		"Rating": 5.8,
		"Pitches": 1,
		"Length": 41,
		"Area Latitude": 38.85513,
		"Area Longitude": -106.02574
	},
	{
		"Route": "Unknown",
		"Location": "Turtle Rocks > Turtle Rocks, Baby Turtle, and The Corridor > Buena Vista > Colorado",
		"URL": "https://www.mountainproject.com/route/121252111/unknown",
		"Avg Stars": 3,
		"Your Stars": -1,
		"Route Type": "Sport",
		"Rating": 5.7,
		"Pitches": 1,
		"Length": "",
		"Area Latitude": 38.88191,
		"Area Longitude": -106.14755
	},
	{
		"Route": "Santa Claws",
		"Location": "Cat Scratch Wall > Chalk Creek Canyon > Buena Vista > Colorado",
		"URL": "https://www.mountainproject.com/route/120727880/santa-claws",
		"Avg Stars": 3,
		"Your Stars": -1,
		"Route Type": "Trad, TR",
		"Rating": "5.9+",
		"Pitches": 1,
		"Length": 100,
		"Area Latitude": 38.72118,
		"Area Longitude": -106.25731
	},
	{
		"Route": "Regular Route",
		"Location": "Jed's Slab > Chalk Creek Canyon > Buena Vista > Colorado",
		"URL": "https://www.mountainproject.com/route/122649347/regular-route",
		"Avg Stars": 3,
		"Your Stars": -1,
		"Route Type": "Trad, TR",
		"Rating": "5.9+ PG13",
		"Pitches": 1,
		"Length": 210,
		"Area Latitude": 38.70935,
		"Area Longitude": -106.23235
	},
	{
		"Route": "Wet Dream Explosion",
		"Location": "St. Elmo Slab > St. Elmo > Buena Vista > Colorado",
		"URL": "https://www.mountainproject.com/route/123588641/wet-dream-explosion",
		"Avg Stars": 3,
		"Your Stars": -1,
		"Route Type": "Sport",
		"Rating": 5.6,
		"Pitches": 1,
		"Length": 50,
		"Area Latitude": 38.70645,
		"Area Longitude": -106.34078
	},
	{
		"Route": "Route 2",
		"Location": "Climbing Area 58 > Climbing Areas 53-64 > Buena Vista > Colorado",
		"URL": "https://www.mountainproject.com/route/119398098/route-2",
		"Avg Stars": 2.9,
		"Your Stars": -1,
		"Route Type": "Sport",
		"Rating": "5.8+",
		"Pitches": 1,
		"Length": 50,
		"Area Latitude": 38.86699,
		"Area Longitude": -106.14055
	},
	{
		"Route": "Route 5",
		"Location": "Climbing Area 60 > Climbing Areas 53-64 > Buena Vista > Colorado",
		"URL": "https://www.mountainproject.com/route/119801349/route-5",
		"Avg Stars": 3,
		"Your Stars": -1,
		"Route Type": "TR",
		"Rating": 5.7,
		"Pitches": 1,
		"Length": 40,
		"Area Latitude": 38.85651,
		"Area Longitude": -106.12355
	},
	{
		"Route": "Route 3",
		"Location": "Climbing Area 60 > Climbing Areas 53-64 > Buena Vista > Colorado",
		"URL": "https://www.mountainproject.com/route/119801154/route-3",
		"Avg Stars": 3,
		"Your Stars": -1,
		"Route Type": "TR",
		"Rating": 5.7,
		"Pitches": 1,
		"Length": 45,
		"Area Latitude": 38.85651,
		"Area Longitude": -106.12355
	},
	{
		"Route": "Route 1",
		"Location": "Climbing Area 60 > Climbing Areas 53-64 > Buena Vista > Colorado",
		"URL": "https://www.mountainproject.com/route/119800932/route-1",
		"Avg Stars": 3,
		"Your Stars": -1,
		"Route Type": "TR",
		"Rating": 5.8,
		"Pitches": 1,
		"Length": 25,
		"Area Latitude": 38.85651,
		"Area Longitude": -106.12355
	},
	{
		"Route": "Route 3",
		"Location": "Climbing Area 63 > Climbing Areas 53-64 > Buena Vista > Colorado",
		"URL": "https://www.mountainproject.com/route/119961010/route-3",
		"Avg Stars": 4,
		"Your Stars": -1,
		"Route Type": "Sport",
		"Rating": "5.7+",
		"Pitches": 1,
		"Length": 40,
		"Area Latitude": 38.85556,
		"Area Longitude": -106.11893
	},
	{
		"Route": "Route 1",
		"Location": "Climbing Area 63 > Climbing Areas 53-64 > Buena Vista > Colorado",
		"URL": "https://www.mountainproject.com/route/119960746/route-1",
		"Avg Stars": 3,
		"Your Stars": -1,
		"Route Type": "Sport",
		"Rating": 5.7,
		"Pitches": 1,
		"Length": 50,
		"Area Latitude": 38.85556,
		"Area Longitude": -106.11893
	},
	{
		"Route": "Get Your Trabzon",
		"Location": "Gothic Windows > Grand Turk > San Juans > Alpine Rock > Colorado",
		"URL": "https://www.mountainproject.com/route/121010991/get-your-trabzon",
		"Avg Stars": 3,
		"Your Stars": -1,
		"Route Type": "Sport, Alpine",
		"Rating": 5.8,
		"Pitches": 1,
		"Length": 80,
		"Area Latitude": 37.77579,
		"Area Longitude": -107.69569
	},
	{
		"Route": "Unknown",
		"Location": "Mind Dump > Northstar Mountain > Alpine Rock > Colorado",
		"URL": "https://www.mountainproject.com/route/119712366/unknown",
		"Avg Stars": 3,
		"Your Stars": -1,
		"Route Type": "Sport, Alpine",
		"Rating": 5.8,
		"Pitches": 1,
		"Length": 50,
		"Area Latitude": 39.38057,
		"Area Longitude": -106.07757
	},
	{
		"Route": "Unknown",
		"Location": "Mind Dump > Northstar Mountain > Alpine Rock > Colorado",
		"URL": "https://www.mountainproject.com/route/119712382/unknown",
		"Avg Stars": 3,
		"Your Stars": -1,
		"Route Type": "Sport, Alpine",
		"Rating": 5.8,
		"Pitches": 1,
		"Length": 50,
		"Area Latitude": 39.38057,
		"Area Longitude": -106.07757
	},
	{
		"Route": "Hitchin' A Ride",
		"Location": "Tom's Thumb > Devil's Gate Sector > Devil's Head > South Platte > Colorado",
		"URL": "https://www.mountainproject.com/route/119166327/hitchin-a-ride",
		"Avg Stars": 3,
		"Your Stars": -1,
		"Route Type": "Sport",
		"Rating": "5.9+",
		"Pitches": 1,
		"Length": 50,
		"Area Latitude": 39.25466,
		"Area Longitude": -105.09294
	},
	{
		"Route": "The Belgian",
		"Location": "Waffle House > Devil's Head > South Platte > Colorado",
		"URL": "https://www.mountainproject.com/route/113834348/the-belgian",
		"Avg Stars": 2.9,
		"Your Stars": -1,
		"Route Type": "Sport",
		"Rating": 5.7,
		"Pitches": 1,
		"Length": 70,
		"Area Latitude": 39.25955,
		"Area Longitude": -105.10239
	},
	{
		"Route": "Just a Pancake With Syrup",
		"Location": "Waffle House > Devil's Head > South Platte > Colorado",
		"URL": "https://www.mountainproject.com/route/113834312/just-a-pancake-with-syrup",
		"Avg Stars": 2.8,
		"Your Stars": -1,
		"Route Type": "Sport",
		"Rating": 5.6,
		"Pitches": 1,
		"Length": 85,
		"Area Latitude": 39.25955,
		"Area Longitude": -105.10239
	},
	{
		"Route": "Hold My Graphite",
		"Location": "Chernobyl > Devil's Head > South Platte > Colorado",
		"URL": "https://www.mountainproject.com/route/117652582/hold-my-graphite",
		"Avg Stars": 3,
		"Your Stars": -1,
		"Route Type": "Sport",
		"Rating": "5.9-",
		"Pitches": 1,
		"Length": 100,
		"Area Latitude": 39.2564,
		"Area Longitude": -105.08926
	},
	{
		"Route": "It's a Gift",
		"Location": "Hall of Fame > Devil's Head > South Platte > Colorado",
		"URL": "https://www.mountainproject.com/route/117667080/its-a-gift",
		"Avg Stars": 3,
		"Your Stars": -1,
		"Route Type": "Sport",
		"Rating": 5.7,
		"Pitches": 1,
		"Length": 100,
		"Area Latitude": 39.2603,
		"Area Longitude": -105.09094
	},
	{
		"Route": "Miss Wyoming",
		"Location": "Elevenmile Dome > Elevenmile Canyon > South Platte > Colorado",
		"URL": "https://www.mountainproject.com/route/106926010/miss-wyoming",
		"Avg Stars": 2.9,
		"Your Stars": -1,
		"Route Type": "Sport",
		"Rating": 5.9,
		"Pitches": 1,
		"Length": 110,
		"Area Latitude": 38.94534,
		"Area Longitude": -105.39205
	},
	{
		"Route": "Greetings from Butchers Hill",
		"Location": "Arch Rock > Elevenmile Canyon > South Platte > Colorado",
		"URL": "https://www.mountainproject.com/route/117691144/greetings-from-butchers-hill",
		"Avg Stars": 2.8,
		"Your Stars": -1,
		"Route Type": "Sport",
		"Rating": 5.9,
		"Pitches": 1,
		"Length": 75,
		"Area Latitude": 38.93784,
		"Area Longitude": -105.40579
	},
	{
		"Route": "Hemisphere",
		"Location": "The Icebox > Elevenmile Canyon > South Platte > Colorado",
		"URL": "https://www.mountainproject.com/route/107199753/hemisphere",
		"Avg Stars": 3.1,
		"Your Stars": -1,
		"Route Type": "Sport",
		"Rating": "5.9+",
		"Pitches": 1,
		"Length": 70,
		"Area Latitude": 38.90773,
		"Area Longitude": -105.46008
	},
	{
		"Route": "Head Over Squeals",
		"Location": "Scoop Wall > Elevenmile Canyon > South Platte > Colorado",
		"URL": "https://www.mountainproject.com/route/105762903/head-over-squeals",
		"Avg Stars": 3.3,
		"Your Stars": -1,
		"Route Type": "Trad, Sport",
		"Rating": "5.9+",
		"Pitches": 1,
		"Length": 100,
		"Area Latitude": 38.9344,
		"Area Longitude": -105.4075
	},
	{
		"Route": "Slippery When Wet",
		"Location": "Messenger Wall > Elevenmile Canyon > South Platte > Colorado",
		"URL": "https://www.mountainproject.com/route/107792458/slippery-when-wet",
		"Avg Stars": 3,
		"Your Stars": -1,
		"Route Type": "Sport",
		"Rating": 5.8,
		"Pitches": 1,
		"Length": 180,
		"Area Latitude": 38.9344,
		"Area Longitude": -105.4075
	},
	{
		"Route": "Littlefoot",
		"Location": "The Stacks > The Bigfoots > Rampart Range Road > South Platte > Colorado",
		"URL": "https://www.mountainproject.com/route/118054521/littlefoot",
		"Avg Stars": 3,
		"Your Stars": -1,
		"Route Type": "Trad, TR",
		"Rating": 5.4,
		"Pitches": 1,
		"Length": 80,
		"Area Latitude": 38.92866,
		"Area Longitude": -104.95601
	},
	{
		"Route": "Harry",
		"Location": "The Stacks > The Bigfoots > Rampart Range Road > South Platte > Colorado",
		"URL": "https://www.mountainproject.com/route/118054555/harry",
		"Avg Stars": 3,
		"Your Stars": -1,
		"Route Type": "Trad, TR",
		"Rating": "5.9+",
		"Pitches": 1,
		"Length": 50,
		"Area Latitude": 38.92866,
		"Area Longitude": -104.95601
	},
	{
		"Route": "Dirty Jackson",
		"Location": "Big Split Boulder > The Bigfoots > Rampart Range Road > South Platte > Colorado",
		"URL": "https://www.mountainproject.com/route/118828835/dirty-jackson",
		"Avg Stars": 3,
		"Your Stars": -1,
		"Route Type": "Sport",
		"Rating": 5.9,
		"Pitches": 1,
		"Length": 50,
		"Area Latitude": 38.92659,
		"Area Longitude": -104.95303
	},
	{
		"Route": "Short Barrel",
		"Location": "Toy Gun Buttress > The Bigfoots > Rampart Range Road > South Platte > Colorado",
		"URL": "https://www.mountainproject.com/route/118844486/short-barrel",
		"Avg Stars": 3,
		"Your Stars": -1,
		"Route Type": "Trad, TR",
		"Rating": "5.9+",
		"Pitches": 1,
		"Length": 80,
		"Area Latitude": 38.92755,
		"Area Longitude": -104.95411
	},
	{
		"Route": "Pulp Friction",
		"Location": "The Quarry > Thunder Ridge > West Creek > South Platte > Colorado",
		"URL": "https://www.mountainproject.com/route/106166854/pulp-friction",
		"Avg Stars": 3,
		"Your Stars": -1,
		"Route Type": "Sport",
		"Rating": "5.8+",
		"Pitches": 1,
		"Length": 70,
		"Area Latitude": 39.19906,
		"Area Longitude": -105.22163
	},
	{
		"Route": "Bundle of Fleece",
		"Location": "The Quarry > Thunder Ridge > West Creek > South Platte > Colorado",
		"URL": "https://www.mountainproject.com/route/113740067/bundle-of-fleece",
		"Avg Stars": 2.9,
		"Your Stars": -1,
		"Route Type": "Sport",
		"Rating": 5.9,
		"Pitches": 1,
		"Length": 80,
		"Area Latitude": 39.19906,
		"Area Longitude": -105.22163
	},
	{
		"Route": "Half and Half",
		"Location": "The Outback > Thunder Ridge > West Creek > South Platte > Colorado",
		"URL": "https://www.mountainproject.com/route/110751984/half-and-half",
		"Avg Stars": 2.9,
		"Your Stars": -1,
		"Route Type": "Sport",
		"Rating": 5.9,
		"Pitches": 1,
		"Length": 115,
		"Area Latitude": 39.21232,
		"Area Longitude": -105.2318
	},
	{
		"Route": "Motor Breath",
		"Location": "The Little Dome > Cathedral Spires Area > South Platte > Colorado",
		"URL": "https://www.mountainproject.com/route/107896618/motor-breath",
		"Avg Stars": 3,
		"Your Stars": -1,
		"Route Type": "Trad, Sport",
		"Rating": 5.9,
		"Pitches": 1,
		"Length": 60,
		"Area Latitude": 39.413,
		"Area Longitude": -105.2673
	},
	{
		"Route": "Voodoo Ranger",
		"Location": "Helen's Dome > Sheeprock > Goose Creek/Molly Gulch Campground > South Platte > Colorado",
		"URL": "https://www.mountainproject.com/route/114470705/voodoo-ranger",
		"Avg Stars": 3.6,
		"Your Stars": -1,
		"Route Type": "Sport",
		"Rating": 5.9,
		"Pitches": 1,
		"Length": 115,
		"Area Latitude": 39.18868,
		"Area Longitude": -105.33495
	},
	{
		"Route": "Bali Shag",
		"Location": "Upper Smoking Section > Smoking Sections > Sheeprock > Goose Creek/Molly Gulch Campground > South Platte > Colorado",
		"URL": "https://www.mountainproject.com/route/115372289/bali-shag",
		"Avg Stars": 4,
		"Your Stars": -1,
		"Route Type": "Sport",
		"Rating": 5.9,
		"Pitches": 1,
		"Length": 115,
		"Area Latitude": 39.18863,
		"Area Longitude": -105.33053
	},
	{
		"Route": "Five Beer Plan",
		"Location": "Whiskey Rocks North > Whiskey Rocks > Goose Creek/Molly Gulch Campground > South Platte > Colorado",
		"URL": "https://www.mountainproject.com/route/119274705/five-beer-plan",
		"Avg Stars": 3.8,
		"Your Stars": -1,
		"Route Type": "Trad, TR",
		"Rating": "5.9+",
		"Pitches": 1,
		"Length": 40,
		"Area Latitude": 39.22001,
		"Area Longitude": -105.33287
	},
	{
		"Route": "Whiskey Business",
		"Location": "Whiskey Rocks North > Whiskey Rocks > Goose Creek/Molly Gulch Campground > South Platte > Colorado",
		"URL": "https://www.mountainproject.com/route/119197732/whiskey-business",
		"Avg Stars": 3.2,
		"Your Stars": -1,
		"Route Type": "Sport",
		"Rating": 5.7,
		"Pitches": 1,
		"Length": 45,
		"Area Latitude": 39.22001,
		"Area Longitude": -105.33287
	},
	{
		"Route": "Cheddar Business Bureau",
		"Location": "Whiskey Rocks North > Whiskey Rocks > Goose Creek/Molly Gulch Campground > South Platte > Colorado",
		"URL": "https://www.mountainproject.com/route/119197804/cheddar-business-bureau",
		"Avg Stars": 3.2,
		"Your Stars": -1,
		"Route Type": "Trad, TR",
		"Rating": 5.6,
		"Pitches": 1,
		"Length": 40,
		"Area Latitude": 39.22001,
		"Area Longitude": -105.33287
	},
	{
		"Route": "Hair of the Dog",
		"Location": "Whiskey Rocks North > Whiskey Rocks > Goose Creek/Molly Gulch Campground > South Platte > Colorado",
		"URL": "https://www.mountainproject.com/route/118852168/hair-of-the-dog",
		"Avg Stars": 2.8,
		"Your Stars": -1,
		"Route Type": "Trad, TR, Boulder",
		"Rating": "5.9 V0",
		"Pitches": 1,
		"Length": 25,
		"Area Latitude": 39.22001,
		"Area Longitude": -105.33287
	},
	{
		"Route": "Sleep Chimney",
		"Location": "Whiskey Rocks North > Whiskey Rocks > Goose Creek/Molly Gulch Campground > South Platte > Colorado",
		"URL": "https://www.mountainproject.com/route/119200786/sleep-chimney",
		"Avg Stars": 3,
		"Your Stars": -1,
		"Route Type": "Trad, TR",
		"Rating": 5.8,
		"Pitches": 1,
		"Length": 30,
		"Area Latitude": 39.22001,
		"Area Longitude": -105.33287
	},
	{
		"Route": "Rip’s Wall",
		"Location": "Whiskey Rocks West > Whiskey Rocks > Goose Creek/Molly Gulch Campground > South Platte > Colorado",
		"URL": "https://www.mountainproject.com/route/121786015/rips-wall",
		"Avg Stars": 3,
		"Your Stars": -1,
		"Route Type": "Sport, TR",
		"Rating": 5.9,
		"Pitches": 1,
		"Length": 100,
		"Area Latitude": 39.2159,
		"Area Longitude": -105.33633
	},
	{
		"Route": "Whiskey Glasses",
		"Location": "Whiskey Rocks West > Whiskey Rocks > Goose Creek/Molly Gulch Campground > South Platte > Colorado",
		"URL": "https://www.mountainproject.com/route/121786082/whiskey-glasses",
		"Avg Stars": 3,
		"Your Stars": -1,
		"Route Type": "Trad, TR",
		"Rating": 5.5,
		"Pitches": 1,
		"Length": 100,
		"Area Latitude": 39.2159,
		"Area Longitude": -105.33633
	},
	{
		"Route": "Shipwreck in the Sand",
		"Location": "Inferno Slab > Goose Creek/Molly Gulch Campground > South Platte > Colorado",
		"URL": "https://www.mountainproject.com/route/118132673/shipwreck-in-the-sand",
		"Avg Stars": 2.9,
		"Your Stars": -1,
		"Route Type": "Sport",
		"Rating": 5.9,
		"Pitches": 1,
		"Length": 115,
		"Area Latitude": 39.21141,
		"Area Longitude": -105.32192
	},
	{
		"Route": "The Day You Died",
		"Location": "Inferno Slab > Goose Creek/Molly Gulch Campground > South Platte > Colorado",
		"URL": "https://www.mountainproject.com/route/118132506/the-day-you-died",
		"Avg Stars": 2.9,
		"Your Stars": -1,
		"Route Type": "Sport",
		"Rating": 5.8,
		"Pitches": 1,
		"Length": 120,
		"Area Latitude": 39.21141,
		"Area Longitude": -105.32192
	},
	{
		"Route": "Left Handed Jew",
		"Location": "Turkey Perch > Turkey Rocks > South Platte > Colorado",
		"URL": "https://www.mountainproject.com/route/105749284/left-handed-jew",
		"Avg Stars": 3.1,
		"Your Stars": -1,
		"Route Type": "Trad, TR",
		"Rating": "5.7+",
		"Pitches": 1,
		"Length": 70,
		"Area Latitude": 39.11904,
		"Area Longitude": -105.23958
	},
	{
		"Route": "Easy Peasy",
		"Location": "D. The Badlands > Black Creek Wall > Old Mill Area > Staunton State Park > South Platte > Colorado",
		"URL": "https://www.mountainproject.com/route/122226628/easy-peasy",
		"Avg Stars": 2.9,
		"Your Stars": -1,
		"Route Type": "Sport",
		"Rating": 5.9,
		"Pitches": 1,
		"Length": 90,
		"Area Latitude": 39.52364,
		"Area Longitude": -105.38746
	},
	{
		"Route": "Raisin’ in the Sun",
		"Location": "Park View Dome > Staunton Rocks > Staunton State Park > South Platte > Colorado",
		"URL": "https://www.mountainproject.com/route/121622366/raisin-in-the-sun",
		"Avg Stars": 2.9,
		"Your Stars": -1,
		"Route Type": "Sport",
		"Rating": 5.6,
		"Pitches": 1,
		"Length": 80,
		"Area Latitude": 39.5176,
		"Area Longitude": -105.3997
	},
	{
		"Route": "Red Herring",
		"Location": "The Red Wall > Staunton State Park > South Platte > Colorado",
		"URL": "https://www.mountainproject.com/route/114233684/red-herring",
		"Avg Stars": 2.8,
		"Your Stars": -1,
		"Route Type": "Sport",
		"Rating": 5.9,
		"Pitches": 1,
		"Length": 90,
		"Area Latitude": 39.51391,
		"Area Longitude": -105.39062
	},
	{
		"Route": "This Way to Tasty",
		"Location": "Death by Wildlife > Beyond Authority > Staunton State Park > South Platte > Colorado",
		"URL": "https://www.mountainproject.com/route/117123108/this-way-to-tasty",
		"Avg Stars": 3,
		"Your Stars": -1,
		"Route Type": "Sport",
		"Rating": 5.9,
		"Pitches": 1,
		"Length": 95,
		"Area Latitude": 39.52441,
		"Area Longitude": -105.41653
	},
	{
		"Route": "Peace Train",
		"Location": "Left Side > Reynolds Wall > Staunton State Park > South Platte > Colorado",
		"URL": "https://www.mountainproject.com/route/122212815/peace-train",
		"Avg Stars": 2.9,
		"Your Stars": -1,
		"Route Type": "Sport",
		"Rating": 5.9,
		"Pitches": 1,
		"Length": 115,
		"Area Latitude": 39.50013,
		"Area Longitude": -105.37806
	},
	{
		"Route": "D9 - Easy, Left Angler",
		"Location": "Main Area > Sedalia Crack Bouldering > South Platte > Colorado",
		"URL": "https://www.mountainproject.com/route/111669129/d9-easy-left-angler",
		"Avg Stars": 3,
		"Your Stars": -1,
		"Route Type": "TR",
		"Rating": 5.7,
		"Pitches": 1,
		"Length": 13,
		"Area Latitude": 39.37678,
		"Area Longitude": -105.10127
	},
	{
		"Route": "C3 - Long Chimney",
		"Location": "Main Area > Sedalia Crack Bouldering > South Platte > Colorado",
		"URL": "https://www.mountainproject.com/route/111660028/c3-long-chimney",
		"Avg Stars": 3,
		"Your Stars": -1,
		"Route Type": "TR",
		"Rating": "5.7 R",
		"Pitches": 1,
		"Length": 20,
		"Area Latitude": 39.37678,
		"Area Longitude": -105.10127
	},
	{
		"Route": "Annual Bonus",
		"Location": "Feral Petunia > Badger Flats > Badger Mountain > South Platte > Colorado",
		"URL": "https://www.mountainproject.com/route/119084365/annual-bonus",
		"Avg Stars": 3,
		"Your Stars": -1,
		"Route Type": "Sport",
		"Rating": 5.8,
		"Pitches": 1,
		"Length": "",
		"Area Latitude": 39.10988,
		"Area Longitude": -105.50316
	},
	{
		"Route": "Three Amigos",
		"Location": "Chicken Rock > Valley of The Chickens > Badger Flats > Badger Mountain > South Platte > Colorado",
		"URL": "https://www.mountainproject.com/route/113584940/three-amigos",
		"Avg Stars": 3.1,
		"Your Stars": -1,
		"Route Type": "Sport",
		"Rating": "5.9+",
		"Pitches": 1,
		"Length": 100,
		"Area Latitude": 39.10057,
		"Area Longitude": -105.52353
	},
	{
		"Route": "Just Flew the Coup",
		"Location": "Chicken Rock > Valley of The Chickens > Badger Flats > Badger Mountain > South Platte > Colorado",
		"URL": "https://www.mountainproject.com/route/106538318/just-flew-the-coup",
		"Avg Stars": 2.9,
		"Your Stars": -1,
		"Route Type": "Sport",
		"Rating": 5.6,
		"Pitches": 1,
		"Length": 70,
		"Area Latitude": 39.10057,
		"Area Longitude": -105.52353
	},
	{
		"Route": "Shady Character",
		"Location": "Black Dog Rock > Dog Rocks > South Platte > Colorado",
		"URL": "https://www.mountainproject.com/route/113615398/shady-character",
		"Avg Stars": 2.9,
		"Your Stars": -1,
		"Route Type": "Sport",
		"Rating": 5.9,
		"Pitches": 1,
		"Length": 50,
		"Area Latitude": 39.08638,
		"Area Longitude": -105.405
	},
	{
		"Route": "Bucolic",
		"Location": "Inventions in Nature > South Platte > Colorado",
		"URL": "https://www.mountainproject.com/route/118851398/bucolic",
		"Avg Stars": 3,
		"Your Stars": -1,
		"Route Type": "Sport",
		"Rating": "5.8+",
		"Pitches": 1,
		"Length": 70,
		"Area Latitude": 39.16196,
		"Area Longitude": -105.4756
	},
	{
		"Route": "Eagleview Middle School",
		"Location": "Inventions in Nature > South Platte > Colorado",
		"URL": "https://www.mountainproject.com/route/118852574/eagleview-middle-school",
		"Avg Stars": 3,
		"Your Stars": -1,
		"Route Type": "Sport",
		"Rating": 5.9,
		"Pitches": 1,
		"Length": 100,
		"Area Latitude": 39.16196,
		"Area Longitude": -105.4756
	},
	{
		"Route": "5th of July",
		"Location": "High Wire Crag > Clear Creek Canyon > Golden > Colorado",
		"URL": "https://www.mountainproject.com/route/105748271/5th-of-july",
		"Avg Stars": 2.9,
		"Your Stars": -1,
		"Route Type": "Sport",
		"Rating": 5.9,
		"Pitches": 1,
		"Length": "",
		"Area Latitude": 39.7378,
		"Area Longitude": -105.3196
	},
	{
		"Route": "Skimbleshanks",
		"Location": "The Catslab > Clear Creek Canyon > Golden > Colorado",
		"URL": "https://www.mountainproject.com/route/105749530/skimbleshanks",
		"Avg Stars": 3,
		"Your Stars": -1,
		"Route Type": "Sport",
		"Rating": "5.8-",
		"Pitches": 1,
		"Length": 130,
		"Area Latitude": 39.7428,
		"Area Longitude": -105.4043
	},
	{
		"Route": "Mineral Museum",
		"Location": "The Crystal Tower > Clear Creek Canyon > Golden > Colorado",
		"URL": "https://www.mountainproject.com/route/105749800/mineral-museum",
		"Avg Stars": 3.1,
		"Your Stars": -1,
		"Route Type": "Trad, Sport",
		"Rating": 5.9,
		"Pitches": 1,
		"Length": 75,
		"Area Latitude": 39.74003,
		"Area Longitude": -105.41468
	},
	{
		"Route": "Lunchmoney",
		"Location": "Lower Capitalist Crag > Capitalist Crag > Clear Creek Canyon > Golden > Colorado",
		"URL": "https://www.mountainproject.com/route/105756478/lunchmoney",
		"Avg Stars": 3.1,
		"Your Stars": -1,
		"Route Type": "Sport",
		"Rating": "5.9+",
		"Pitches": 1,
		"Length": 100,
		"Area Latitude": 39.73948,
		"Area Longitude": -105.32756
	},
	{
		"Route": "Guppy",
		"Location": "Creek Side > Clear Creek Canyon > Golden > Colorado",
		"URL": "https://www.mountainproject.com/route/105763794/guppy",
		"Avg Stars": 3.5,
		"Your Stars": -1,
		"Route Type": "Sport",
		"Rating": 5.8,
		"Pitches": 1,
		"Length": 115,
		"Area Latitude": 39.74102,
		"Area Longitude": -105.41042
	},
	{
		"Route": "Fish and Chips",
		"Location": "Creek Side > Clear Creek Canyon > Golden > Colorado",
		"URL": "https://www.mountainproject.com/route/105763797/fish-and-chips",
		"Avg Stars": 3.4,
		"Your Stars": -1,
		"Route Type": "Sport",
		"Rating": "5.9+",
		"Pitches": 1,
		"Length": 115,
		"Area Latitude": 39.74102,
		"Area Longitude": -105.41042
	},
	{
		"Route": "Made In The Shade",
		"Location": "The Canal Zone > Clear Creek Canyon > Golden > Colorado",
		"URL": "https://www.mountainproject.com/route/106210224/made-in-the-shade",
		"Avg Stars": 3,
		"Your Stars": -1,
		"Route Type": "Sport",
		"Rating": "5.9-",
		"Pitches": 1,
		"Length": 125,
		"Area Latitude": 39.75032,
		"Area Longitude": -105.24779
	},
	{
		"Route": "The Adventures of Rocky and Bullwinkle",
		"Location": "Live Action Wall > Clear Creek Canyon > Golden > Colorado",
		"URL": "https://www.mountainproject.com/route/112528287/the-adventures-of-rocky-and-bullwinkle",
		"Avg Stars": 2.9,
		"Your Stars": -1,
		"Route Type": "Sport",
		"Rating": 5.8,
		"Pitches": 1,
		"Length": 90,
		"Area Latitude": 39.74242,
		"Area Longitude": -105.40955
	},
	{
		"Route": "Great Barrier Reef",
		"Location": "The Oz > Clear Creek Canyon > Golden > Colorado",
		"URL": "https://www.mountainproject.com/route/114949932/great-barrier-reef",
		"Avg Stars": 3,
		"Your Stars": -1,
		"Route Type": "Sport",
		"Rating": "5.9-",
		"Pitches": 1,
		"Length": 90,
		"Area Latitude": 39.7422,
		"Area Longitude": -105.40942
	},
	{
		"Route": "Carjack Crack",
		"Location": "Colorado School of Mines > Golden > Colorado",
		"URL": "https://www.mountainproject.com/route/122369962/carjack-crack",
		"Avg Stars": 3.3,
		"Your Stars": -1,
		"Route Type": "Trad, TR",
		"Rating": 5.7,
		"Pitches": 1,
		"Length": 25,
		"Area Latitude": 39.75142,
		"Area Longitude": -105.22172
	},
	{
		"Route": "Three Little Birds",
		"Location": "C. Middle and West Walls > C. Lower Tier > Tiers of Zion > Lookout Mountain Road > Golden > Colorado",
		"URL": "https://www.mountainproject.com/route/110230055/three-little-birds",
		"Avg Stars": 3,
		"Your Stars": -1,
		"Route Type": "Sport",
		"Rating": 5.9,
		"Pitches": 1,
		"Length": 65,
		"Area Latitude": 39.74393,
		"Area Longitude": -105.24208
	},
	{
		"Route": "Old Aid",
		"Location": "Creekside Wall > North Cheyenne Canyon > Colorado Springs > Colorado",
		"URL": "https://www.mountainproject.com/route/105754540/old-aid",
		"Avg Stars": 3,
		"Your Stars": -1,
		"Route Type": "Trad, TR",
		"Rating": "5.9+",
		"Pitches": 1,
		"Length": "",
		"Area Latitude": 38.79164,
		"Area Longitude": -104.87645
	},
	{
		"Route": "Panopticon",
		"Location": "Grayback Wall > Grayback Peak > Old Stage Road > Colorado Springs > Colorado",
		"URL": "https://www.mountainproject.com/route/122768968/panopticon",
		"Avg Stars": 3,
		"Your Stars": -1,
		"Route Type": "Sport",
		"Rating": "5.9+",
		"Pitches": 1,
		"Length": 90,
		"Area Latitude": 38.71338,
		"Area Longitude": -104.9012
	},
	{
		"Route": "Flint Knap",
		"Location": "Obsidian Wall > Grayback Peak > Old Stage Road > Colorado Springs > Colorado",
		"URL": "https://www.mountainproject.com/route/122769379/flint-knap",
		"Avg Stars": 3,
		"Your Stars": -1,
		"Route Type": "Sport",
		"Rating": "5.9+",
		"Pitches": 1,
		"Length": 65,
		"Area Latitude": 38.71354,
		"Area Longitude": -104.90141
	},
	{
		"Route": "Emerald Face",
		"Location": "Emerald Wall > Grayback Peak > Old Stage Road > Colorado Springs > Colorado",
		"URL": "https://www.mountainproject.com/route/122769722/emerald-face",
		"Avg Stars": 4,
		"Your Stars": -1,
		"Route Type": "Sport",
		"Rating": 5.8,
		"Pitches": 1,
		"Length": 145,
		"Area Latitude": 38.71347,
		"Area Longitude": -104.90147
	},
	{
		"Route": "Appalachian Mud Squid",
		"Location": "Appalachian Mud Squid Wall > Grayback Peak > Old Stage Road > Colorado Springs > Colorado",
		"URL": "https://www.mountainproject.com/route/122770163/appalachian-mud-squid",
		"Avg Stars": 3,
		"Your Stars": -1,
		"Route Type": "Sport",
		"Rating": 5.8,
		"Pitches": 1,
		"Length": 110,
		"Area Latitude": 38.71336,
		"Area Longitude": -104.90149
	},
	{
		"Route": "Solar Flare",
		"Location": "Solar Slab > Red Rock Canyon Open Space > Colorado Springs > Colorado",
		"URL": "https://www.mountainproject.com/route/105841903/solar-flare",
		"Avg Stars": 3.1,
		"Your Stars": -1,
		"Route Type": "Trad, Sport",
		"Rating": "5.9+",
		"Pitches": 1,
		"Length": "",
		"Area Latitude": 38.845,
		"Area Longitude": -104.8823
	},
	{
		"Route": "Dakota Righthand (submitted as Sunday Morning Brunch 1)",
		"Location": "Dakota Hogback (submitted as Bear Canyon) > Red Rock Canyon Open Space > Colorado Springs > Colorado",
		"URL": "https://www.mountainproject.com/route/122102964/dakota-righthand-submitted-as-sunday-morning-brunch-1",
		"Avg Stars": 3,
		"Your Stars": -1,
		"Route Type": "Sport",
		"Rating": 5.5,
		"Pitches": 1,
		"Length": 60,
		"Area Latitude": 38.82251,
		"Area Longitude": -104.88797
	},
	{
		"Route": "Nirvana",
		"Location": "Nirvana Wall > Stanley Canyon > Air Force Academy > Colorado Springs > Colorado",
		"URL": "https://www.mountainproject.com/route/119655182/nirvana",
		"Avg Stars": 3,
		"Your Stars": -1,
		"Route Type": "Sport, TR",
		"Rating": 5.9,
		"Pitches": 1,
		"Length": 70,
		"Area Latitude": 38.98746,
		"Area Longitude": -104.90827
	},
	{
		"Route": "Splitter",
		"Location": "The Perch > Mt. Harmon > Air Force Academy > Colorado Springs > Colorado",
		"URL": "https://www.mountainproject.com/route/119466982/splitter",
		"Avg Stars": 3,
		"Your Stars": -1,
		"Route Type": "Trad, TR",
		"Rating": "5.9+",
		"Pitches": 1,
		"Length": 110,
		"Area Latitude": 38.99522,
		"Area Longitude": -104.90971
	},
	{
		"Route": "Ratatouille",
		"Location": "The Perch > Mt. Harmon > Air Force Academy > Colorado Springs > Colorado",
		"URL": "https://www.mountainproject.com/route/119881444/ratatouille",
		"Avg Stars": 3,
		"Your Stars": -1,
		"Route Type": "Trad, TR",
		"Rating": 5.8,
		"Pitches": 1,
		"Length": 50,
		"Area Latitude": 38.99522,
		"Area Longitude": -104.90971
	},
	{
		"Route": "Presley Arête",
		"Location": "Torture Chamber > Horsetooth Reservoir > Fort Collins > Colorado",
		"URL": "https://www.mountainproject.com/route/119067051/presley-arete",
		"Avg Stars": 3,
		"Your Stars": -1,
		"Route Type": "Trad, TR",
		"Rating": "5.9+",
		"Pitches": 1,
		"Length": 25,
		"Area Latitude": 40.52969,
		"Area Longitude": -105.13763
	},
	{
		"Route": "Aerial Surveillance",
		"Location": "North Horsetooth Ridge > Horsetooth Reservoir > Fort Collins > Colorado",
		"URL": "https://www.mountainproject.com/route/118870246/aerial-surveillance",
		"Avg Stars": 3,
		"Your Stars": -1,
		"Route Type": "Trad, TR",
		"Rating": "5.8-",
		"Pitches": 1,
		"Length": 60,
		"Area Latitude": 40.60839,
		"Area Longitude": -105.17039
	},
	{
		"Route": "Bananarête",
		"Location": "North Face > Crystal Wall > Poudre Canyon > Fort Collins > Colorado",
		"URL": "https://www.mountainproject.com/route/107219523/bananarete",
		"Avg Stars": 2.8,
		"Your Stars": -1,
		"Route Type": "Sport",
		"Rating": "5.9+",
		"Pitches": 1,
		"Length": 75,
		"Area Latitude": 40.6936,
		"Area Longitude": -105.37656
	},
	{
		"Route": "Prince Mushroom",
		"Location": "Kingfin Crag > Critical Mass Area > West of Rustic > Poudre Canyon > Fort Collins > Colorado",
		"URL": "https://www.mountainproject.com/route/120496860/prince-mushroom",
		"Avg Stars": 3,
		"Your Stars": -1,
		"Route Type": "Sport",
		"Rating": 5.8,
		"Pitches": 1,
		"Length": 50,
		"Area Latitude": 40.71205,
		"Area Longitude": -105.72468
	},
	{
		"Route": "Three Flakes to the Wind",
		"Location": "Happy Hour Crag > Poudre Canyon > Fort Collins > Colorado",
		"URL": "https://www.mountainproject.com/route/119235746/three-flakes-to-the-wind",
		"Avg Stars": 2.8,
		"Your Stars": -1,
		"Route Type": "Sport",
		"Rating": 5.8,
		"Pitches": 1,
		"Length": 100,
		"Area Latitude": 40.70022,
		"Area Longitude": -105.25132
	},
	{
		"Route": "Black Dog",
		"Location": "The Overlook (Arthur's Rock) > Arthur's Rock > Lory State Park > Fort Collins > Colorado",
		"URL": "https://www.mountainproject.com/route/116999768/black-dog",
		"Avg Stars": 3,
		"Your Stars": -1,
		"Route Type": "Sport, TR",
		"Rating": 5.8,
		"Pitches": 1,
		"Length": 75,
		"Area Latitude": 40.56634,
		"Area Longitude": -105.18381
	},
	{
		"Route": "Ligneous Embracer",
		"Location": "Rock Garden > San Luis Valley > Colorado",
		"URL": "https://www.mountainproject.com/route/105753418/ligneous-embracer",
		"Avg Stars": 2.9,
		"Your Stars": -1,
		"Route Type": "Sport",
		"Rating": "5.9+",
		"Pitches": 1,
		"Length": "",
		"Area Latitude": 37.85137,
		"Area Longitude": -106.29103
	},
	{
		"Route": "Melaza",
		"Location": "01. West Side > The Promised Land > San Luis Valley > Colorado",
		"URL": "https://www.mountainproject.com/route/121638456/melaza",
		"Avg Stars": 3,
		"Your Stars": -1,
		"Route Type": "Sport",
		"Rating": 5.6,
		"Pitches": 1,
		"Length": 90,
		"Area Latitude": 37.57138,
		"Area Longitude": -106.32453
	},
	{
		"Route": "Enterprise",
		"Location": "Contest Wall > Sand Gulch > Shelf Road > Canon City > Colorado",
		"URL": "https://www.mountainproject.com/route/105824687/enterprise",
		"Avg Stars": 3,
		"Your Stars": -1,
		"Route Type": "Sport",
		"Rating": "5.9+",
		"Pitches": 1,
		"Length": 70,
		"Area Latitude": 38.62148,
		"Area Longitude": -105.23217
	},
	{
		"Route": "First Blood",
		"Location": "Menses Prow > The Gallery > Shelf Road > Canon City > Colorado",
		"URL": "https://www.mountainproject.com/route/105764676/first-blood",
		"Avg Stars": 2.9,
		"Your Stars": -1,
		"Route Type": "Sport",
		"Rating": 5.8,
		"Pitches": 1,
		"Length": 70,
		"Area Latitude": 38.6199,
		"Area Longitude": -105.2371
	},
	{
		"Route": "Sick of Tradition",
		"Location": "Menses Prow > The Gallery > Shelf Road > Canon City > Colorado",
		"URL": "https://www.mountainproject.com/route/118648351/sick-of-tradition",
		"Avg Stars": 2.9,
		"Your Stars": -1,
		"Route Type": "Sport",
		"Rating": 5.8,
		"Pitches": 1,
		"Length": 50,
		"Area Latitude": 38.6199,
		"Area Longitude": -105.2371
	},
	{
		"Route": "Fox on the Run",
		"Location": "Quarry Wall at the Bank > The Bank > Shelf Road > Canon City > Colorado",
		"URL": "https://www.mountainproject.com/route/116966091/fox-on-the-run",
		"Avg Stars": 3,
		"Your Stars": -1,
		"Route Type": "Sport",
		"Rating": 5.7,
		"Pitches": 1,
		"Length": 60,
		"Area Latitude": 38.64085,
		"Area Longitude": -105.24069
	},
	{
		"Route": "Over The Hill",
		"Location": "Quarry Wall at the Bank > The Bank > Shelf Road > Canon City > Colorado",
		"URL": "https://www.mountainproject.com/route/116763466/over-the-hill",
		"Avg Stars": 2.8,
		"Your Stars": -1,
		"Route Type": "Sport",
		"Rating": 5.9,
		"Pitches": 1,
		"Length": 60,
		"Area Latitude": 38.64085,
		"Area Longitude": -105.24069
	},
	{
		"Route": "Fire Marshall Bill",
		"Location": "Quarry Wall at the Bank > The Bank > Shelf Road > Canon City > Colorado",
		"URL": "https://www.mountainproject.com/route/118323210/fire-marshall-bill",
		"Avg Stars": 2.9,
		"Your Stars": -1,
		"Route Type": "Sport",
		"Rating": "5.9+",
		"Pitches": 1,
		"Length": 50,
		"Area Latitude": 38.64085,
		"Area Longitude": -105.24069
	},
	{
		"Route": "Tuff Shed (aka B&C)",
		"Location": "01. Piggy Bank > The Bank > Shelf Road > Canon City > Colorado",
		"URL": "https://www.mountainproject.com/route/107025294/tuff-shed-aka-bc",
		"Avg Stars": 2.9,
		"Your Stars": -1,
		"Route Type": "Sport",
		"Rating": "5.9+",
		"Pitches": 1,
		"Length": 70,
		"Area Latitude": 38.63547,
		"Area Longitude": -105.23428
	},
	{
		"Route": "Let Me Out",
		"Location": "03. Machine Gun Kelly > The Bank > Shelf Road > Canon City > Colorado",
		"URL": "https://www.mountainproject.com/route/106744592/let-me-out",
		"Avg Stars": 2.9,
		"Your Stars": -1,
		"Route Type": "Sport",
		"Rating": 5.9,
		"Pitches": 1,
		"Length": 60,
		"Area Latitude": 38.63524,
		"Area Longitude": -105.2317
	},
	{
		"Route": "Ga-stoned Again",
		"Location": "The Gym > Shelf Road > Canon City > Colorado",
		"URL": "https://www.mountainproject.com/route/105761217/ga-stoned-again",
		"Avg Stars": 3.4,
		"Your Stars": -1,
		"Route Type": "Sport",
		"Rating": 5.9,
		"Pitches": 1,
		"Length": 80,
		"Area Latitude": 38.6329,
		"Area Longitude": -105.2165
	},
	{
		"Route": "Crynoid Corner",
		"Location": "A. Cactus Cliff Far Left (left of Muscle Beach) > Cactus Cliff > Shelf Road > Canon City > Colorado",
		"URL": "https://www.mountainproject.com/route/105753616/crynoid-corner",
		"Avg Stars": 3.1,
		"Your Stars": -1,
		"Route Type": "Sport",
		"Rating": 5.7,
		"Pitches": 1,
		"Length": 75,
		"Area Latitude": 38.6324,
		"Area Longitude": -105.22269
	},
	{
		"Route": "Oscar de la Cholla",
		"Location": "D. Cactus Cliff Right (left of Funkdemental) > Cactus Cliff > Shelf Road > Canon City > Colorado",
		"URL": "https://www.mountainproject.com/route/105755515/oscar-de-la-cholla",
		"Avg Stars": 2.9,
		"Your Stars": -1,
		"Route Type": "Sport",
		"Rating": 5.9,
		"Pitches": 1,
		"Length": 75,
		"Area Latitude": 38.63093,
		"Area Longitude": -105.22073
	},
	{
		"Route": "LaCholla Jackson",
		"Location": "E. Cactus Cliff Far Right (Funkdemental and right) > Cactus Cliff > Shelf Road > Canon City > Colorado",
		"URL": "https://www.mountainproject.com/route/105753220/lacholla-jackson",
		"Avg Stars": 3.1,
		"Your Stars": -1,
		"Route Type": "Sport",
		"Rating": "5.8+",
		"Pitches": 1,
		"Length": 75,
		"Area Latitude": 38.63066,
		"Area Longitude": -105.21961
	},
	{
		"Route": "Lumina",
		"Location": "The Dark Side > Shelf Road > Canon City > Colorado",
		"URL": "https://www.mountainproject.com/route/105752422/lumina",
		"Avg Stars": 2.8,
		"Your Stars": -1,
		"Route Type": "Sport",
		"Rating": 5.9,
		"Pitches": 1,
		"Length": "",
		"Area Latitude": 38.6281,
		"Area Longitude": -105.2239
	},
	{
		"Route": "Unknown Offwidth-Stem Corner",
		"Location": "The North End > Shelf Road > Canon City > Colorado",
		"URL": "https://www.mountainproject.com/route/122188056/unknown-offwidth-stem-corner",
		"Avg Stars": 3,
		"Your Stars": -1,
		"Route Type": "Sport",
		"Rating": 5.9,
		"Pitches": 1,
		"Length": 75,
		"Area Latitude": 38.6452,
		"Area Longitude": -105.2205
	},
	{
		"Route": "Black Crack\" (Name Unknown)",
		"Location": "The North Gym > Shelf Road > Canon City > Colorado",
		"URL": "https://www.mountainproject.com/route/107067396/black-crack-name-unknown",
		"Avg Stars": 3.4,
		"Your Stars": -1,
		"Route Type": "Trad, Sport",
		"Rating": 5.9,
		"Pitches": 1,
		"Length": 70,
		"Area Latitude": 38.6395,
		"Area Longitude": -105.215
	},
	{
		"Route": "Chicken Dance",
		"Location": "Hesse Wall > Phantom Canyon > Canon City > Colorado",
		"URL": "https://www.mountainproject.com/route/111764279/chicken-dance",
		"Avg Stars": 3,
		"Your Stars": -1,
		"Route Type": "Sport",
		"Rating": "5.9+",
		"Pitches": 1,
		"Length": 60,
		"Area Latitude": 38.49598,
		"Area Longitude": -105.11011
	},
	{
		"Route": "The Honest Wood Cutter",
		"Location": "Buddha Wall > Buckskin Crags > Canon City > Colorado",
		"URL": "https://www.mountainproject.com/route/118580599/the-honest-wood-cutter",
		"Avg Stars": 4,
		"Your Stars": -1,
		"Route Type": "Sport",
		"Rating": 5.9,
		"Pitches": 1,
		"Length": 40,
		"Area Latitude": 38.4751,
		"Area Longitude": -105.31867
	},
	{
		"Route": "Panna (Wisdom)",
		"Location": "Buddha Wall > Buckskin Crags > Canon City > Colorado",
		"URL": "https://www.mountainproject.com/route/118580564/panna-wisdom",
		"Avg Stars": 3.5,
		"Your Stars": -1,
		"Route Type": "Sport",
		"Rating": "5.8+",
		"Pitches": 1,
		"Length": 50,
		"Area Latitude": 38.4751,
		"Area Longitude": -105.31867
	},
	{
		"Route": "Fluttering Silk",
		"Location": "Buddha Wall > Buckskin Crags > Canon City > Colorado",
		"URL": "https://www.mountainproject.com/route/118580603/fluttering-silk",
		"Avg Stars": 3.5,
		"Your Stars": -1,
		"Route Type": "Sport",
		"Rating": "5.9+",
		"Pitches": 1,
		"Length": 40,
		"Area Latitude": 38.4751,
		"Area Longitude": -105.31867
	},
	{
		"Route": "Karuna (Compassion)",
		"Location": "Buddha Wall > Buckskin Crags > Canon City > Colorado",
		"URL": "https://www.mountainproject.com/route/118580544/karuna-compassion",
		"Avg Stars": 3,
		"Your Stars": -1,
		"Route Type": "Sport, TR",
		"Rating": "5.9+",
		"Pitches": 1,
		"Length": 55,
		"Area Latitude": 38.4751,
		"Area Longitude": -105.31867
	},
	{
		"Route": "Big Bad Bill Wilson",
		"Location": "Territorial Wall > Buckskin Crags > Canon City > Colorado",
		"URL": "https://www.mountainproject.com/route/118582307/big-bad-bill-wilson",
		"Avg Stars": 3,
		"Your Stars": -1,
		"Route Type": "Trad, TR",
		"Rating": 5.7,
		"Pitches": 1,
		"Length": 31,
		"Area Latitude": 38.47585,
		"Area Longitude": -105.31766
	},
	{
		"Route": "Bighorn Desperados",
		"Location": "Outlaw Wall > Buckskin Crags > Canon City > Colorado",
		"URL": "https://www.mountainproject.com/route/118582544/bighorn-desperados",
		"Avg Stars": 3,
		"Your Stars": -1,
		"Route Type": "Sport, TR",
		"Rating": 5.7,
		"Pitches": 1,
		"Length": 30,
		"Area Latitude": 38.47631,
		"Area Longitude": -105.31664
	},
	{
		"Route": "Curtis Loves Ross",
		"Location": "Cinema Wall > The Sweet Spot > Buckskin Crags > Canon City > Colorado",
		"URL": "https://www.mountainproject.com/route/121632040/curtis-loves-ross",
		"Avg Stars": 3,
		"Your Stars": -1,
		"Route Type": "Sport, TR",
		"Rating": 5.8,
		"Pitches": 1,
		"Length": "",
		"Area Latitude": 38.4734,
		"Area Longitude": -105.32075
	},
	{
		"Route": "Finger Crack",
		"Location": "Nip and Tuck > Boulder Canyon > Boulder > Colorado",
		"URL": "https://www.mountainproject.com/route/105748352/finger-crack",
		"Avg Stars": 2.8,
		"Your Stars": -1,
		"Route Type": "Trad, TR",
		"Rating": 5.9,
		"Pitches": 1,
		"Length": "",
		"Area Latitude": 39.98709,
		"Area Longitude": -105.43728
	},
	{
		"Route": "Runaway",
		"Location": "Coney Island > Boulder Canyon > Boulder > Colorado",
		"URL": "https://www.mountainproject.com/route/105764853/runaway",
		"Avg Stars": 2.9,
		"Your Stars": -1,
		"Route Type": "Sport",
		"Rating": 5.8,
		"Pitches": 1,
		"Length": 120,
		"Area Latitude": 39.9928,
		"Area Longitude": -105.4181
	},
	{
		"Route": "Animation",
		"Location": "Lower Animal World > Animal World > Boulder Canyon > Boulder > Colorado",
		"URL": "https://www.mountainproject.com/route/105749785/animation",
		"Avg Stars": 3.2,
		"Your Stars": -1,
		"Route Type": "Sport",
		"Rating": 5.8,
		"Pitches": 1,
		"Length": 100,
		"Area Latitude": 39.99752,
		"Area Longitude": -105.41522
	},
	{
		"Route": "The Luminosity",
		"Location": "Solaris > Boulder Canyon > Boulder > Colorado",
		"URL": "https://www.mountainproject.com/route/105761157/the-luminosity",
		"Avg Stars": 3,
		"Your Stars": -1,
		"Route Type": "Sport",
		"Rating": 5.9,
		"Pitches": 1,
		"Length": 85,
		"Area Latitude": 40.0001,
		"Area Longitude": -105.4125
	},
	{
		"Route": "Time Traveler",
		"Location": "Lost Angel > Upper Dream Canyon > Boulder > Colorado",
		"URL": "https://www.mountainproject.com/route/105750463/time-traveler",
		"Avg Stars": 2.9,
		"Your Stars": -1,
		"Route Type": "Trad, TR",
		"Rating": 5.9,
		"Pitches": 1,
		"Length": "",
		"Area Latitude": 40.0089,
		"Area Longitude": -105.41
	},
	{
		"Route": "She Blew Me",
		"Location": "Diamond Head > Eldorado Canyon State Park > Boulder > Colorado",
		"URL": "https://www.mountainproject.com/route/105755419/she-blew-me",
		"Avg Stars": 4,
		"Your Stars": -1,
		"Route Type": "Trad, TR",
		"Rating": "5.9+ X",
		"Pitches": 1,
		"Length": "",
		"Area Latitude": 39.94674,
		"Area Longitude": -105.29556
	},
	{
		"Route": "Positively Fourth Street",
		"Location": "West Ridge - part D - Xanadu to Pony Express > The West Ridge > Eldorado Canyon State Park > Boulder > Colorado",
		"URL": "https://www.mountainproject.com/route/105749917/positively-fourth-street",
		"Avg Stars": 2.9,
		"Your Stars": -1,
		"Route Type": "Trad, TR",
		"Rating": "5.9+",
		"Pitches": 1,
		"Length": 70,
		"Area Latitude": 39.93239,
		"Area Longitude": -105.28874
	},
	{
		"Route": "The Offset",
		"Location": "Mickey Mouse Wall > Eldorado Mountain > Boulder > Colorado",
		"URL": "https://www.mountainproject.com/route/105755401/the-offset",
		"Avg Stars": 3.1,
		"Your Stars": -1,
		"Route Type": "Trad, TR",
		"Rating": "5.9+ R",
		"Pitches": 1,
		"Length": "",
		"Area Latitude": 39.91728,
		"Area Longitude": -105.28551
	},
	{
		"Route": "Lingum Direct",
		"Location": "Achean Pronouncement > Central > Flatirons > Boulder > Colorado",
		"URL": "https://www.mountainproject.com/route/105891177/lingum-direct",
		"Avg Stars": 3,
		"Your Stars": -1,
		"Route Type": "Trad, TR",
		"Rating": "5.9 X",
		"Pitches": 1,
		"Length": 70,
		"Area Latitude": 39.9772,
		"Area Longitude": -105.2902
	},
	{
		"Route": "Paradise Lost",
		"Location": "Red Devil > Central > Flatirons > Boulder > Colorado",
		"URL": "https://www.mountainproject.com/route/105999884/paradise-lost",
		"Avg Stars": 3,
		"Your Stars": -1,
		"Route Type": "Sport",
		"Rating": "5.9-",
		"Pitches": 1,
		"Length": 100,
		"Area Latitude": 39.9749,
		"Area Longitude": -105.289
	},
	{
		"Route": "West Face",
		"Location": "The Matron > South > Flatirons > Boulder > Colorado",
		"URL": "https://www.mountainproject.com/route/105754780/west-face",
		"Avg Stars": 3.5,
		"Your Stars": -1,
		"Route Type": "Trad, TR",
		"Rating": "5.8 R",
		"Pitches": 1,
		"Length": "",
		"Area Latitude": 39.94304,
		"Area Longitude": -105.2884
	},
	{
		"Route": "West Face, Onoclea",
		"Location": "Onoclea > Fern Canyon > South > Flatirons > Boulder > Colorado",
		"URL": "https://www.mountainproject.com/route/106266742/west-face-onoclea",
		"Avg Stars": 3,
		"Your Stars": -1,
		"Route Type": "Trad, TR, Boulder",
		"Rating": "5.7 V-easy",
		"Pitches": 1,
		"Length": 25,
		"Area Latitude": 39.9659,
		"Area Longitude": -105.2901
	},
	{
		"Route": "Rainbow Bridge",
		"Location": "Nebel Horn Ridge > Fern Canyon > South > Flatirons > Boulder > Colorado",
		"URL": "https://www.mountainproject.com/route/105752755/rainbow-bridge",
		"Avg Stars": 3.5,
		"Your Stars": -1,
		"Route Type": "Trad, Sport",
		"Rating": 5.9,
		"Pitches": 1,
		"Length": "",
		"Area Latitude": 39.9662,
		"Area Longitude": -105.2906
	},
	{
		"Route": "Here Comes Santa Claus",
		"Location": "The Hill > City of Boulder > Boulder > Colorado",
		"URL": "https://www.mountainproject.com/route/118610452/here-comes-santa-claus",
		"Avg Stars": 3.4,
		"Your Stars": -1,
		"Route Type": "Sport",
		"Rating": "5.8-",
		"Pitches": 1,
		"Length": 20,
		"Area Latitude": 40.00632,
		"Area Longitude": -105.28096
	},
	{
		"Route": "El Segundo",
		"Location": "North Lake South > The Stonewall > Spanish Peaks > Colorado",
		"URL": "https://www.mountainproject.com/route/105759630/el-segundo",
		"Avg Stars": 3,
		"Your Stars": -1,
		"Route Type": "Sport, TR",
		"Rating": 5.8,
		"Pitches": 1,
		"Length": 50,
		"Area Latitude": 37.23922,
		"Area Longitude": -105.04673
	},
	{
		"Route": "Ronin's Revenge",
		"Location": "North Lake North > The Stonewall > Spanish Peaks > Colorado",
		"URL": "https://www.mountainproject.com/route/105759669/ronins-revenge",
		"Avg Stars": 3,
		"Your Stars": -1,
		"Route Type": "Trad, TR",
		"Rating": 5.9,
		"Pitches": 1,
		"Length": 50,
		"Area Latitude": 37.24206,
		"Area Longitude": -105.04754
	},
	{
		"Route": "La Maudite",
		"Location": "Outer Gates > The Monastery > Big Thompson Canyon > Estes Park Valley > Colorado",
		"URL": "https://www.mountainproject.com/route/105761103/la-maudite",
		"Avg Stars": 2.9,
		"Your Stars": -1,
		"Route Type": "Sport",
		"Rating": "5.9+",
		"Pitches": 1,
		"Length": 100,
		"Area Latitude": 40.45293,
		"Area Longitude": -105.369
	},
	{
		"Route": "The Hot Zone",
		"Location": "The Catacomb > The Monastery > Big Thompson Canyon > Estes Park Valley > Colorado",
		"URL": "https://www.mountainproject.com/route/105756643/the-hot-zone",
		"Avg Stars": 3.4,
		"Your Stars": -1,
		"Route Type": "Sport",
		"Rating": "5.9-",
		"Pitches": 1,
		"Length": "",
		"Area Latitude": 40.45337,
		"Area Longitude": -105.3695
	},
	{
		"Route": "Indifferent",
		"Location": "The Ledges > Beige Tube Area / The Narrows > Big Thompson Canyon > Estes Park Valley > Colorado",
		"URL": "https://www.mountainproject.com/route/115365194/indifferent",
		"Avg Stars": 2.9,
		"Your Stars": -1,
		"Route Type": "Sport",
		"Rating": "5.9+",
		"Pitches": 1,
		"Length": 70,
		"Area Latitude": 40.42159,
		"Area Longitude": -105.24011
	},
	{
		"Route": "These Ol' Bones",
		"Location": "Subskull > Skull Rock Area > Palisade Mountain > Big Thompson Canyon > Estes Park Valley > Colorado",
		"URL": "https://www.mountainproject.com/route/116755492/these-ol-bones",
		"Avg Stars": 3.1,
		"Your Stars": -1,
		"Route Type": "Sport",
		"Rating": 5.9,
		"Pitches": 1,
		"Length": 120,
		"Area Latitude": 40.43666,
		"Area Longitude": -105.31171
	},
	{
		"Route": "Edge of Time",
		"Location": "The Fin > Jurassic Park - Lily Lake > CO Hwy 7 & Tributaries > Estes Park Valley > Colorado",
		"URL": "https://www.mountainproject.com/route/105756826/edge-of-time",
		"Avg Stars": 3.4,
		"Your Stars": -1,
		"Route Type": "Sport, TR",
		"Rating": "5.9+",
		"Pitches": 1,
		"Length": 85,
		"Area Latitude": 40.3127,
		"Area Longitude": -105.5411
	},
	{
		"Route": "Gizmo",
		"Location": "C. Wizard's Gate > Lower Great Face > The Crags > CO Hwy 7 & Tributaries > Estes Park Valley > Colorado",
		"URL": "https://www.mountainproject.com/route/114961899/gizmo",
		"Avg Stars": 2.9,
		"Your Stars": -1,
		"Route Type": "Sport",
		"Rating": 5.7,
		"Pitches": 1,
		"Length": 50,
		"Area Latitude": 40.30276,
		"Area Longitude": -105.52422
	},
	{
		"Route": "Gremlin",
		"Location": "C. Wizard's Gate > Lower Great Face > The Crags > CO Hwy 7 & Tributaries > Estes Park Valley > Colorado",
		"URL": "https://www.mountainproject.com/route/115140579/gremlin",
		"Avg Stars": 2.8,
		"Your Stars": -1,
		"Route Type": "Sport",
		"Rating": 5.8,
		"Pitches": 1,
		"Length": 65,
		"Area Latitude": 40.30276,
		"Area Longitude": -105.52422
	},
	{
		"Route": "Mr. Toad's Wild Ride",
		"Location": "River Wall > Performance Climbing Park > Estes Park Valley > Colorado",
		"URL": "https://www.mountainproject.com/route/112877387/mr-toads-wild-ride",
		"Avg Stars": 2.9,
		"Your Stars": -1,
		"Route Type": "Sport",
		"Rating": 5.9,
		"Pitches": 1,
		"Length": 60,
		"Area Latitude": 40.37764,
		"Area Longitude": -105.52902
	},
	{
		"Route": "The Merrimac",
		"Location": "Tanner Dome > Oak Creek Canyon > The Wet Mountains > Colorado",
		"URL": "https://www.mountainproject.com/route/107521285/the-merrimac",
		"Avg Stars": 2.9,
		"Your Stars": -1,
		"Route Type": "Sport",
		"Rating": "5.9+",
		"Pitches": 1,
		"Length": 80,
		"Area Latitude": 38.30838,
		"Area Longitude": -105.26009
	},
	{
		"Route": "Hanging Judge",
		"Location": "Tanner Dome > Oak Creek Canyon > The Wet Mountains > Colorado",
		"URL": "https://www.mountainproject.com/route/107339692/hanging-judge",
		"Avg Stars": 3,
		"Your Stars": -1,
		"Route Type": "Sport",
		"Rating": 5.9,
		"Pitches": 1,
		"Length": 100,
		"Area Latitude": 38.30838,
		"Area Longitude": -105.26009
	},
	{
		"Route": "Unknown",
		"Location": "Tanner Dome > Oak Creek Canyon > The Wet Mountains > Colorado",
		"URL": "https://www.mountainproject.com/route/108408582/unknown",
		"Avg Stars": 3,
		"Your Stars": -1,
		"Route Type": "Sport",
		"Rating": 5.7,
		"Pitches": 1,
		"Length": "",
		"Area Latitude": 38.30838,
		"Area Longitude": -105.26009
	},
	{
		"Route": "Pay Back",
		"Location": "West Bend Crag > Oak Creek Canyon > The Wet Mountains > Colorado",
		"URL": "https://www.mountainproject.com/route/105970195/pay-back",
		"Avg Stars": 3,
		"Your Stars": -1,
		"Route Type": "Sport",
		"Rating": 5.9,
		"Pitches": 1,
		"Length": 30,
		"Area Latitude": 38.31063,
		"Area Longitude": -105.24943
	},
	{
		"Route": "Buggery",
		"Location": "Main Elk Crag > Main Elk Creek > Glenwood Springs > Colorado",
		"URL": "https://www.mountainproject.com/route/114426285/buggery",
		"Avg Stars": 2.8,
		"Your Stars": -1,
		"Route Type": "Sport",
		"Rating": 5.9,
		"Pitches": 1,
		"Length": 55,
		"Area Latitude": 39.68301,
		"Area Longitude": -107.57778
	},
	{
		"Route": "Wilson",
		"Location": "Main Elk Crag > Main Elk Creek > Glenwood Springs > Colorado",
		"URL": "https://www.mountainproject.com/route/117914237/wilson",
		"Avg Stars": 3.1,
		"Your Stars": -1,
		"Route Type": "Sport",
		"Rating": "5.9+",
		"Pitches": 1,
		"Length": 85,
		"Area Latitude": 39.68301,
		"Area Longitude": -107.57778
	},
	{
		"Route": "Brothers in Drilling",
		"Location": "The Overhangs aka Original Overhangs > East Elk Granite > East Elk Creek > Glenwood Springs > Colorado",
		"URL": "https://www.mountainproject.com/route/111818099/brothers-in-drilling",
		"Avg Stars": 3,
		"Your Stars": -1,
		"Route Type": "Sport",
		"Rating": "5.9+",
		"Pitches": 1,
		"Length": 45,
		"Area Latitude": 39.66731,
		"Area Longitude": -107.52691
	},
	{
		"Route": "True Grit",
		"Location": "Grit Wall > Nine Mile Roped > Nine Mile Hill > Unaweep Canyon > Grand Junction Area > Colorado",
		"URL": "https://www.mountainproject.com/route/107006250/true-grit",
		"Avg Stars": 3.1,
		"Your Stars": -1,
		"Route Type": "Sport",
		"Rating": 5.8,
		"Pitches": 1,
		"Length": 55,
		"Area Latitude": 38.9104,
		"Area Longitude": -108.4935
	},
	{
		"Route": "Spirit Animal",
		"Location": "The Outback > Mother's Buttress > Main Canyon: Unaweep Granite > Unaweep Canyon > Grand Junction Area > Colorado",
		"URL": "https://www.mountainproject.com/route/109328448/spirit-animal",
		"Avg Stars": 2.9,
		"Your Stars": -1,
		"Route Type": "Sport",
		"Rating": 5.8,
		"Pitches": 1,
		"Length": 130,
		"Area Latitude": 38.81444,
		"Area Longitude": -108.62338
	},
	{
		"Route": "Prickly Pear",
		"Location": "Cacti Cliff > Cactus Park > Unaweep Canyon > Grand Junction Area > Colorado",
		"URL": "https://www.mountainproject.com/route/109871414/prickly-pear",
		"Avg Stars": 3,
		"Your Stars": -1,
		"Route Type": "Sport",
		"Rating": 5.9,
		"Pitches": 1,
		"Length": 55,
		"Area Latitude": 38.87642,
		"Area Longitude": -108.49447
	},
	{
		"Route": "Unknown Crack",
		"Location": "After Rain Wall > Escalante Canyon > Grand Junction Area > Colorado",
		"URL": "https://www.mountainproject.com/route/120646564/unknown-crack",
		"Avg Stars": 3,
		"Your Stars": -1,
		"Route Type": "Trad, TR",
		"Rating": 5.8,
		"Pitches": 1,
		"Length": 50,
		"Area Latitude": 38.66761,
		"Area Longitude": -108.33026
	},
	{
		"Route": "Trip Won",
		"Location": "Sport Boulder > Upper Cliff Band Roped Area > Bullet Hole Boulder Area > Grand Junction Area > Colorado",
		"URL": "https://www.mountainproject.com/route/118154582/trip-won",
		"Avg Stars": 3,
		"Your Stars": -1,
		"Route Type": "Sport",
		"Rating": 5.5,
		"Pitches": 1,
		"Length": 25,
		"Area Latitude": 39.0501,
		"Area Longitude": -108.61195
	},
	{
		"Route": "Get Crazy With the Cheese Wiz",
		"Location": "Paleosol Wall > Land's End Area > Grand Mesa > Grand Junction Area > Colorado",
		"URL": "https://www.mountainproject.com/route/108210902/get-crazy-with-the-cheese-wiz",
		"Avg Stars": 3,
		"Your Stars": -1,
		"Route Type": "Trad, Sport",
		"Rating": 5.9,
		"Pitches": 1,
		"Length": 45,
		"Area Latitude": 39.0055,
		"Area Longitude": -108.2005
	},
	{
		"Route": "Charlene’s Dreams",
		"Location": "Dr. C’s Classroom > Land's End Area > Grand Mesa > Grand Junction Area > Colorado",
		"URL": "https://www.mountainproject.com/route/121253200/charlenes-dreams",
		"Avg Stars": 4,
		"Your Stars": -1,
		"Route Type": "Sport",
		"Rating": 5.9,
		"Pitches": 1,
		"Length": 60,
		"Area Latitude": 38.99983,
		"Area Longitude": -108.18326
	},
	{
		"Route": "The Scottish Castle",
		"Location": "Dr. C’s Classroom > Land's End Area > Grand Mesa > Grand Junction Area > Colorado",
		"URL": "https://www.mountainproject.com/route/121253259/the-scottish-castle",
		"Avg Stars": 3,
		"Your Stars": -1,
		"Route Type": "Sport",
		"Rating": "5.8+",
		"Pitches": 1,
		"Length": 55,
		"Area Latitude": 38.99983,
		"Area Longitude": -108.18326
	},
	{
		"Route": "Neutral Zone",
		"Location": "Groove Rock aka Leap of Faith Area > Hartman Rocks > Gunnison > Colorado",
		"URL": "https://www.mountainproject.com/route/105833333/neutral-zone",
		"Avg Stars": 2.9,
		"Your Stars": -1,
		"Route Type": "Sport",
		"Rating": "5.9+",
		"Pitches": 1,
		"Length": 60,
		"Area Latitude": 38.49704,
		"Area Longitude": -106.94487
	},
	{
		"Route": "Tater Tot",
		"Location": "Groove Rock aka Leap of Faith Area > Hartman Rocks > Gunnison > Colorado",
		"URL": "https://www.mountainproject.com/route/119093885/tater-tot",
		"Avg Stars": 2.9,
		"Your Stars": -1,
		"Route Type": "Sport, TR",
		"Rating": "5.9-",
		"Pitches": 1,
		"Length": 80,
		"Area Latitude": 38.49704,
		"Area Longitude": -106.94487
	},
	{
		"Route": "Runaway Jim",
		"Location": "Cut the Rope Wall aka Tom Sawyer Wall > Hartman Rocks > Gunnison > Colorado",
		"URL": "https://www.mountainproject.com/route/107047896/runaway-jim",
		"Avg Stars": 2.9,
		"Your Stars": -1,
		"Route Type": "Sport",
		"Rating": 5.9,
		"Pitches": 1,
		"Length": 40,
		"Area Latitude": 38.49712,
		"Area Longitude": -106.94757
	},
	{
		"Route": "Resistance is Futile",
		"Location": "Resistance Wall > Hartman Rocks > Gunnison > Colorado",
		"URL": "https://www.mountainproject.com/route/113328893/resistance-is-futile",
		"Avg Stars": 2.9,
		"Your Stars": -1,
		"Route Type": "Sport",
		"Rating": "5.8+",
		"Pitches": 1,
		"Length": 50,
		"Area Latitude": 38.49712,
		"Area Longitude": -106.94757
	},
	{
		"Route": "Watching in Silence",
		"Location": "Rock 'N Roll Wall > Hartman Rocks > Gunnison > Colorado",
		"URL": "https://www.mountainproject.com/route/106719864/watching-in-silence",
		"Avg Stars": 3.1,
		"Your Stars": -1,
		"Route Type": "Sport",
		"Rating": 5.9,
		"Pitches": 1,
		"Length": 40,
		"Area Latitude": 38.49812,
		"Area Longitude": -106.94713
	},
	{
		"Route": "Aquadog",
		"Location": "Baby Face / Middle Wall > First Buttress > Taylor Canyon > Gunnison > Colorado",
		"URL": "https://www.mountainproject.com/route/112129085/aquadog",
		"Avg Stars": 2.9,
		"Your Stars": -1,
		"Route Type": "Trad, TR",
		"Rating": "5.8+",
		"Pitches": 1,
		"Length": 65,
		"Area Latitude": 38.72585,
		"Area Longitude": -106.77007
	},
	{
		"Route": "Pacha Mama",
		"Location": "Baby Buttress (aka the Baby Butt) > Taylor Canyon > Gunnison > Colorado",
		"URL": "https://www.mountainproject.com/route/121357192/pacha-mama",
		"Avg Stars": 4,
		"Your Stars": -1,
		"Route Type": "Trad, TR",
		"Rating": 5.7,
		"Pitches": 1,
		"Length": 90,
		"Area Latitude": 38.72669,
		"Area Longitude": -106.76905
	},
	{
		"Route": "Inca Roads",
		"Location": "The Point, Powderhorn, Colorado (AKA Indian Creek) > Gunnison > Colorado",
		"URL": "https://www.mountainproject.com/route/106518219/inca-roads",
		"Avg Stars": 3.1,
		"Your Stars": -1,
		"Route Type": "Sport",
		"Rating": 5.6,
		"Pitches": 1,
		"Length": 80,
		"Area Latitude": 38.24062,
		"Area Longitude": -107.16446
	},
	{
		"Route": "Rubidope",
		"Location": "Western State Campus > Gunnison > Colorado",
		"URL": "https://www.mountainproject.com/route/113783820/rubidope",
		"Avg Stars": 4,
		"Your Stars": -1,
		"Route Type": "TR",
		"Rating": "5.8+",
		"Pitches": 1,
		"Length": 30,
		"Area Latitude": 38.5483,
		"Area Longitude": -106.9181
	},
	{
		"Route": "Dr. Strangelove",
		"Location": "Kubrick's > Rifle Mountain Park > Rifle > Colorado",
		"URL": "https://www.mountainproject.com/route/107235965/dr-strangelove",
		"Avg Stars": 3.1,
		"Your Stars": -1,
		"Route Type": "Sport",
		"Rating": 5.9,
		"Pitches": 1,
		"Length": 70,
		"Area Latitude": 39.71606,
		"Area Longitude": -107.69077
	},
	{
		"Route": "Jimboliar",
		"Location": "Slab Routes > Rifle Arch > Rifle > Colorado",
		"URL": "https://www.mountainproject.com/route/107852485/jimboliar",
		"Avg Stars": 2.9,
		"Your Stars": -1,
		"Route Type": "Sport",
		"Rating": 5.8,
		"Pitches": 1,
		"Length": 90,
		"Area Latitude": 39.62881,
		"Area Longitude": -107.81209
	},
	{
		"Route": "Ooo-la-la",
		"Location": "Napoleon Wall > Gilman Canyon > Eagle/Vail/Minturn/Red Cliff > Colorado",
		"URL": "https://www.mountainproject.com/route/113197584/ooo-la-la",
		"Avg Stars": 3,
		"Your Stars": -1,
		"Route Type": "Sport",
		"Rating": 5.9,
		"Pitches": 1,
		"Length": 75,
		"Area Latitude": 39.50859,
		"Area Longitude": -106.3804
	},
	{
		"Route": "Unknown",
		"Location": "The Schoolyard > Lime Park (a.k.a. Lime Creek) > Eagle/Vail/Minturn/Red Cliff > Colorado",
		"URL": "https://www.mountainproject.com/route/114592156/unknown",
		"Avg Stars": 2.8,
		"Your Stars": -1,
		"Route Type": "Sport",
		"Rating": 5.5,
		"Pitches": 1,
		"Length": 50,
		"Area Latitude": 39.4087,
		"Area Longitude": -106.65458
	},
	{
		"Route": "Chupacabra",
		"Location": "Upper Tier (Bocco Area) > Wolcott Crags and Boulders > Eagle/Vail/Minturn/Red Cliff > Colorado",
		"URL": "https://www.mountainproject.com/route/107341363/chupacabra",
		"Avg Stars": 3,
		"Your Stars": -1,
		"Route Type": "Sport",
		"Rating": "5.9-",
		"Pitches": 1,
		"Length": 60,
		"Area Latitude": 39.71525,
		"Area Longitude": -106.70244
	},
	{
		"Route": "Race the Storm",
		"Location": "The Grotto > Castlewood Canyon SP > Denver South > Colorado",
		"URL": "https://www.mountainproject.com/route/119258280/race-the-storm",
		"Avg Stars": 3,
		"Your Stars": -1,
		"Route Type": "Trad, TR",
		"Rating": 5.4,
		"Pitches": 1,
		"Length": 25,
		"Area Latitude": 39.33111,
		"Area Longitude": -104.73864
	},
	{
		"Route": "The Itch",
		"Location": "Gold Wall > X Rock > Durango > Colorado",
		"URL": "https://www.mountainproject.com/route/105821942/the-itch",
		"Avg Stars": 2.8,
		"Your Stars": -1,
		"Route Type": "TR",
		"Rating": "5.9+",
		"Pitches": 1,
		"Length": 60,
		"Area Latitude": 37.31071,
		"Area Longitude": -107.86172
	},
	{
		"Route": "One Summer's Eve",
		"Location": "Garden of Eden Wall (Pool Area) > Cascade Canyon > Durango > Colorado",
		"URL": "https://www.mountainproject.com/route/105829529/one-summers-eve",
		"Avg Stars": 3.2,
		"Your Stars": -1,
		"Route Type": "Sport",
		"Rating": 5.9,
		"Pitches": 1,
		"Length": 75,
		"Area Latitude": 37.65774,
		"Area Longitude": -107.80962
	},
	{
		"Route": "My Bouyant Craft",
		"Location": "F. Crystal Aretes > West Coast Cliffs > Hermosa > Durango > Colorado",
		"URL": "https://www.mountainproject.com/route/106042987/my-bouyant-craft",
		"Avg Stars": 3,
		"Your Stars": -1,
		"Route Type": "TR",
		"Rating": "5.7+",
		"Pitches": 1,
		"Length": 70,
		"Area Latitude": 37.4294,
		"Area Longitude": -107.8372
	},
	{
		"Route": "Ebb Tide Arete",
		"Location": "K. Jake's Gully > West Coast Cliffs > Hermosa > Durango > Colorado",
		"URL": "https://www.mountainproject.com/route/106043492/ebb-tide-arete",
		"Avg Stars": 4,
		"Your Stars": -1,
		"Route Type": "Sport",
		"Rating": "5.8+",
		"Pitches": 1,
		"Length": 75,
		"Area Latitude": 37.4294,
		"Area Longitude": -107.8372
	},
	{
		"Route": "Snakes And Ladders",
		"Location": "West Side > Lemon Reservoir > Durango > Colorado",
		"URL": "https://www.mountainproject.com/route/122529629/snakes-and-ladders",
		"Avg Stars": 4,
		"Your Stars": -1,
		"Route Type": "TR, Aid, Mixed",
		"Rating": "5.0 M3+ A0",
		"Pitches": 1,
		"Length": 20,
		"Area Latitude": 37.46485,
		"Area Longitude": -107.67834
	},
	{
		"Route": "Tons of Fun",
		"Location": "West Side > Lemon Reservoir > Durango > Colorado",
		"URL": "https://www.mountainproject.com/route/106652951/tons-of-fun",
		"Avg Stars": 2.9,
		"Your Stars": -1,
		"Route Type": "Trad, Sport",
		"Rating": 5.9,
		"Pitches": 1,
		"Length": 80,
		"Area Latitude": 37.46485,
		"Area Longitude": -107.67834
	},
	{
		"Route": "14 Day Limit",
		"Location": "Lakeview > Vallecito Crags > Durango > Colorado",
		"URL": "https://www.mountainproject.com/route/122073947/14-day-limit",
		"Avg Stars": 2.8,
		"Your Stars": -1,
		"Route Type": "Sport",
		"Rating": 5.9,
		"Pitches": 1,
		"Length": 50,
		"Area Latitude": 37.40414,
		"Area Longitude": -107.5267
	},
	{
		"Route": "Thread",
		"Location": "The Cube > Sailing Hawks > Durango > Colorado",
		"URL": "https://www.mountainproject.com/route/114153819/thread",
		"Avg Stars": 3.3,
		"Your Stars": -1,
		"Route Type": "Trad, TR",
		"Rating": 5.8,
		"Pitches": 1,
		"Length": 60,
		"Area Latitude": 37.31023,
		"Area Longitude": -107.88331
	},
	{
		"Route": "Shaolin Shadowboxing",
		"Location": "The Cube > Sailing Hawks > Durango > Colorado",
		"URL": "https://www.mountainproject.com/route/114779219/shaolin-shadowboxing",
		"Avg Stars": 3,
		"Your Stars": -1,
		"Route Type": "Trad, TR",
		"Rating": 5.9,
		"Pitches": 1,
		"Length": 30,
		"Area Latitude": 37.31023,
		"Area Longitude": -107.88331
	},
	{
		"Route": "Goldbar Left Edge",
		"Location": "Loiterland > Sailing Hawks > Durango > Colorado",
		"URL": "https://www.mountainproject.com/route/121951918/goldbar-left-edge",
		"Avg Stars": 3,
		"Your Stars": -1,
		"Route Type": "Sport",
		"Rating": 5.8,
		"Pitches": 1,
		"Length": 75,
		"Area Latitude": 37.31071,
		"Area Longitude": -107.88266
	},
	{
		"Route": "Bipolar Express",
		"Location": "Mental Block > Sailing Hawks > Durango > Colorado",
		"URL": "https://www.mountainproject.com/route/123551120/bipolar-express",
		"Avg Stars": 3,
		"Your Stars": -1,
		"Route Type": "Sport",
		"Rating": 5.7,
		"Pitches": 1,
		"Length": 50,
		"Area Latitude": 37.31106,
		"Area Longitude": -107.88058
	},
	{
		"Route": "Groove Tube",
		"Location": "The Alcove > The Pool Wall > Ouray vicinity (rock) > Colorado",
		"URL": "https://www.mountainproject.com/route/105957345/groove-tube",
		"Avg Stars": 3.1,
		"Your Stars": -1,
		"Route Type": "Sport",
		"Rating": 5.9,
		"Pitches": 1,
		"Length": 90,
		"Area Latitude": 38.03114,
		"Area Longitude": -107.67124
	},
	{
		"Route": "Logan's Slab",
		"Location": "Ouray Rotary Park-Rink Wall > Ouray vicinity (rock) > Colorado",
		"URL": "https://www.mountainproject.com/route/122821013/logans-slab",
		"Avg Stars": 3,
		"Your Stars": -1,
		"Route Type": "Sport",
		"Rating": "5.9 PG13",
		"Pitches": 1,
		"Length": 40,
		"Area Latitude": 38.0436,
		"Area Longitude": -107.6802
	},
	{
		"Route": "Plumbline",
		"Location": "Slab of Despair > Ouray vicinity (rock) > Colorado",
		"URL": "https://www.mountainproject.com/route/107769025/plumbline",
		"Avg Stars": 3,
		"Your Stars": -1,
		"Route Type": "Sport",
		"Rating": "5.9+",
		"Pitches": 1,
		"Length": 55,
		"Area Latitude": 37.9949,
		"Area Longitude": -107.6562
	},
	{
		"Route": "Bad Bowl",
		"Location": "The Secret Stash > Ouray vicinity (rock) > Colorado",
		"URL": "https://www.mountainproject.com/route/108128958/bad-bowl",
		"Avg Stars": 3,
		"Your Stars": -1,
		"Route Type": "Trad, Sport",
		"Rating": "5.9-",
		"Pitches": 1,
		"Length": 55,
		"Area Latitude": 37.9825,
		"Area Longitude": -107.6449
	},
	{
		"Route": "Hot Line",
		"Location": "The Secret Stash > Ouray vicinity (rock) > Colorado",
		"URL": "https://www.mountainproject.com/route/108128895/hot-line",
		"Avg Stars": 3,
		"Your Stars": -1,
		"Route Type": "Trad, Sport",
		"Rating": "5.9+",
		"Pitches": 1,
		"Length": 65,
		"Area Latitude": 37.9825,
		"Area Longitude": -107.6449
	},
	{
		"Route": "Wanton Endangerment",
		"Location": "The Mordwand > Ouray vicinity (rock) > Colorado",
		"URL": "https://www.mountainproject.com/route/120875682/wanton-endangerment",
		"Avg Stars": 3,
		"Your Stars": -1,
		"Route Type": "Sport",
		"Rating": "5.9+",
		"Pitches": 1,
		"Length": 85,
		"Area Latitude": 37.97945,
		"Area Longitude": -107.65742
	},
	{
		"Route": "Rhino's Revenge",
		"Location": "Cecilville Slab aka Cecil Rock > Fremont Pass > Colorado",
		"URL": "https://www.mountainproject.com/route/105850423/rhinos-revenge",
		"Avg Stars": 2.8,
		"Your Stars": -1,
		"Route Type": "Sport",
		"Rating": 5.9,
		"Pitches": 1,
		"Length": "",
		"Area Latitude": 39.33014,
		"Area Longitude": -106.21737
	},
	{
		"Route": "Steel Nuts",
		"Location": "Box Canyon > Steamboat Springs > Colorado",
		"URL": "https://www.mountainproject.com/route/106236131/steel-nuts",
		"Avg Stars": 2.8,
		"Your Stars": -1,
		"Route Type": "Sport",
		"Rating": 5.8,
		"Pitches": 1,
		"Length": 80,
		"Area Latitude": 40.756,
		"Area Longitude": -106.8403
	},
	{
		"Route": "Tough Life",
		"Location": "Lower-Tier > Strip Mall > Hole in the Wall Canyon > Steamboat Springs > Colorado",
		"URL": "https://www.mountainproject.com/route/117643740/tough-life",
		"Avg Stars": 3.5,
		"Your Stars": -1,
		"Route Type": "Sport",
		"Rating": 5.9,
		"Pitches": 1,
		"Length": 75,
		"Area Latitude": 40.78865,
		"Area Longitude": -106.84025
	},
	{
		"Route": "Rainy Day",
		"Location": "Lower-Tier > Strip Mall > Hole in the Wall Canyon > Steamboat Springs > Colorado",
		"URL": "https://www.mountainproject.com/route/117643670/rainy-day",
		"Avg Stars": 3,
		"Your Stars": -1,
		"Route Type": "Trad, TR",
		"Rating": "5.8+",
		"Pitches": 1,
		"Length": 85,
		"Area Latitude": 40.78865,
		"Area Longitude": -106.84025
	},
	{
		"Route": "No End of Love",
		"Location": "Upper-Tier > Strip Mall > Hole in the Wall Canyon > Steamboat Springs > Colorado",
		"URL": "https://www.mountainproject.com/route/117643807/no-end-of-love",
		"Avg Stars": 3,
		"Your Stars": -1,
		"Route Type": "Sport",
		"Rating": 5.7,
		"Pitches": 1,
		"Length": 75,
		"Area Latitude": 40.78865,
		"Area Longitude": -106.84025
	},
	{
		"Route": "Seven Nation Army",
		"Location": "White Stripe > Mica Basin > Mt. Zirkel Wilderness > Steamboat Springs > Colorado",
		"URL": "https://www.mountainproject.com/route/122763096/seven-nation-army",
		"Avg Stars": 3,
		"Your Stars": -1,
		"Route Type": "Trad, TR, Alpine",
		"Rating": "5.8+ PG13",
		"Pitches": 1,
		"Length": 60,
		"Area Latitude": 40.82278,
		"Area Longitude": -106.70048
	},
	{
		"Route": "Para-Fin",
		"Location": "Wax Museum > Steamboat Springs > Colorado",
		"URL": "https://www.mountainproject.com/route/117402691/para-fin",
		"Avg Stars": 2.9,
		"Your Stars": -1,
		"Route Type": "Sport",
		"Rating": 5.7,
		"Pitches": 1,
		"Length": 75,
		"Area Latitude": 40.52357,
		"Area Longitude": -106.78496
	},
	{
		"Route": "M.O.M.",
		"Location": "Wax Museum > Steamboat Springs > Colorado",
		"URL": "https://www.mountainproject.com/route/121048851/mom",
		"Avg Stars": 3,
		"Your Stars": -1,
		"Route Type": "Sport",
		"Rating": 5.8,
		"Pitches": 1,
		"Length": 55,
		"Area Latitude": 40.52357,
		"Area Longitude": -106.78496
	},
	{
		"Route": "Keep It Greasy",
		"Location": "Mad Creek > Steamboat Springs > Colorado",
		"URL": "https://www.mountainproject.com/route/119851722/keep-it-greasy",
		"Avg Stars": 3,
		"Your Stars": -1,
		"Route Type": "Sport",
		"Rating": 5.9,
		"Pitches": 1,
		"Length": 50,
		"Area Latitude": 40.57123,
		"Area Longitude": -106.88077
	},
	{
		"Route": "Rainbow Warrior",
		"Location": "Main Wall > Ophir Wall > Ophir > Telluride/Norwood area > Colorado",
		"URL": "https://www.mountainproject.com/route/105847261/rainbow-warrior",
		"Avg Stars": 3,
		"Your Stars": -1,
		"Route Type": "Sport",
		"Rating": "5.9+ R",
		"Pitches": 1,
		"Length": 120,
		"Area Latitude": 37.859,
		"Area Longitude": -107.86669
	},
	{
		"Route": "Miss Earth",
		"Location": "Clay Creek Crag > Telluride/Norwood area > Colorado",
		"URL": "https://www.mountainproject.com/route/107340425/miss-earth",
		"Avg Stars": 3,
		"Your Stars": -1,
		"Route Type": "Trad, Sport",
		"Rating": 5.9,
		"Pitches": 1,
		"Length": 35,
		"Area Latitude": 38.16663,
		"Area Longitude": -108.23833
	},
	{
		"Route": "The Sweet Spot",
		"Location": "Piedra River -  Lower West > Piedra River > Pagosa Springs > Colorado",
		"URL": "https://www.mountainproject.com/route/119069013/the-sweet-spot",
		"Avg Stars": 2.9,
		"Your Stars": -1,
		"Route Type": "Sport",
		"Rating": 5.9,
		"Pitches": 1,
		"Length": 50,
		"Area Latitude": 37.4197,
		"Area Longitude": -107.1968
	},
	{
		"Route": "The Good Boyfriend",
		"Location": "Blanco Basin Crags > Pagosa Springs > Colorado",
		"URL": "https://www.mountainproject.com/route/107692182/the-good-boyfriend",
		"Avg Stars": 3,
		"Your Stars": -1,
		"Route Type": "Trad, Sport",
		"Rating": 5.6,
		"Pitches": 1,
		"Length": 40,
		"Area Latitude": 37.26254,
		"Area Longitude": -106.75706
	},
	{
		"Route": "Invincible",
		"Location": "Wild River Crag > Pagosa Springs > Colorado",
		"URL": "https://www.mountainproject.com/route/122870634/invincible",
		"Avg Stars": 3,
		"Your Stars": -1,
		"Route Type": "Sport",
		"Rating": 5.9,
		"Pitches": 1,
		"Length": "",
		"Area Latitude": 37.26484,
		"Area Longitude": -107.01031
	},
	{
		"Route": "The Gift",
		"Location": "Right Side > Dry Creek Crag > Montrose > Colorado",
		"URL": "https://www.mountainproject.com/route/117089857/the-gift",
		"Avg Stars": 3.5,
		"Your Stars": -1,
		"Route Type": "Sport",
		"Rating": "5.8+",
		"Pitches": 1,
		"Length": 45,
		"Area Latitude": 38.49753,
		"Area Longitude": -108.05949
	},
	{
		"Route": "Lay It Back",
		"Location": "Right Side > Dry Creek Crag > Montrose > Colorado",
		"URL": "https://www.mountainproject.com/route/113861536/lay-it-back",
		"Avg Stars": 3,
		"Your Stars": -1,
		"Route Type": "Trad, TR",
		"Rating": 5.8,
		"Pitches": 1,
		"Length": 40,
		"Area Latitude": 38.49753,
		"Area Longitude": -108.05949
	},
	{
		"Route": "Jugfest",
		"Location": "Left Side > Dry Creek Crag > Montrose > Colorado",
		"URL": "https://www.mountainproject.com/route/113778629/jugfest",
		"Avg Stars": 3,
		"Your Stars": -1,
		"Route Type": "Sport",
		"Rating": "5.9-",
		"Pitches": 1,
		"Length": 35,
		"Area Latitude": 38.49961,
		"Area Longitude": -108.05929
	},
	{
		"Route": "Cataract Crack",
		"Location": "Cataract Lake (Heeney, Colorado) > Colorado",
		"URL": "https://www.mountainproject.com/route/106562750/cataract-crack",
		"Avg Stars": 3,
		"Your Stars": -1,
		"Route Type": "TR, Alpine",
		"Rating": "5.7 PG13",
		"Pitches": 1,
		"Length": 40,
		"Area Latitude": 39.8283,
		"Area Longitude": -106.3263
	},
	{
		"Route": "Right Away",
		"Location": "Teeter Top > 10 Mile Canyon > Colorado",
		"URL": "https://www.mountainproject.com/route/119748261/right-away",
		"Avg Stars": 3.4,
		"Your Stars": -1,
		"Route Type": "Sport",
		"Rating": 5.9,
		"Pitches": 1,
		"Length": 30,
		"Area Latitude": 39.56807,
		"Area Longitude": -106.12628
	},
	{
		"Route": "Craterade",
		"Location": "Teeter Top > 10 Mile Canyon > Colorado",
		"URL": "https://www.mountainproject.com/route/119748114/craterade",
		"Avg Stars": 3.3,
		"Your Stars": -1,
		"Route Type": "TR",
		"Rating": 5.5,
		"Pitches": 1,
		"Length": 45,
		"Area Latitude": 39.56807,
		"Area Longitude": -106.12628
	},
	{
		"Route": "Tree Trimmer",
		"Location": "Teeter Top > 10 Mile Canyon > Colorado",
		"URL": "https://www.mountainproject.com/route/119748235/tree-trimmer",
		"Avg Stars": 3.3,
		"Your Stars": -1,
		"Route Type": "TR",
		"Rating": 5.6,
		"Pitches": 1,
		"Length": 35,
		"Area Latitude": 39.56807,
		"Area Longitude": -106.12628
	},
	{
		"Route": "Line of Little Resistance",
		"Location": "Teeter Top > 10 Mile Canyon > Colorado",
		"URL": "https://www.mountainproject.com/route/119748208/line-of-little-resistance",
		"Avg Stars": 3,
		"Your Stars": -1,
		"Route Type": "TR",
		"Rating": 5.5,
		"Pitches": 1,
		"Length": 35,
		"Area Latitude": 39.56807,
		"Area Longitude": -106.12628
	},
	{
		"Route": "Michele's Crack",
		"Location": "First Wall > Hurd Creek Crag > Grand County / Fraser Valley > Colorado",
		"URL": "https://www.mountainproject.com/route/120011973/micheles-crack",
		"Avg Stars": 3.8,
		"Your Stars": -1,
		"Route Type": "Trad, TR",
		"Rating": 5.8,
		"Pitches": 1,
		"Length": "",
		"Area Latitude": 40.00991,
		"Area Longitude": -105.82257
	},
	{
		"Route": "In the Groove",
		"Location": "First Wall > Hurd Creek Crag > Grand County / Fraser Valley > Colorado",
		"URL": "https://www.mountainproject.com/route/120011908/in-the-groove",
		"Avg Stars": 3.1,
		"Your Stars": -1,
		"Route Type": "Sport",
		"Rating": 5.9,
		"Pitches": 1,
		"Length": "",
		"Area Latitude": 40.00991,
		"Area Longitude": -105.82257
	},
	{
		"Route": "Poseidon",
		"Location": "Saint Mary's Glacier > Dumont vicinity > Colorado",
		"URL": "https://www.mountainproject.com/route/107743386/poseidon",
		"Avg Stars": 3,
		"Your Stars": -1,
		"Route Type": "TR",
		"Rating": "5.9 PG13",
		"Pitches": 1,
		"Length": 40,
		"Area Latitude": 39.7878,
		"Area Longitude": -105.6332
	},
	{
		"Route": "Reverend Blue Jeans",
		"Location": "Scorpio Crag > Picket Wire Canyon > Vogel Canyon > Colorado",
		"URL": "https://www.mountainproject.com/route/112469837/reverend-blue-jeans",
		"Avg Stars": 3,
		"Your Stars": -1,
		"Route Type": "TR",
		"Rating": 5.9,
		"Pitches": 1,
		"Length": 40,
		"Area Latitude": 37.641,
		"Area Longitude": -103.58438
	},
	{
		"Route": "Massive Hemorrhoid",
		"Location": "A Massive Pain in the ASS > Leadville > Colorado",
		"URL": "https://www.mountainproject.com/route/117693664/massive-hemorrhoid",
		"Avg Stars": 3.7,
		"Your Stars": -1,
		"Route Type": "Trad, TR, Alpine",
		"Rating": "5.6 X",
		"Pitches": 1,
		"Length": 75,
		"Area Latitude": 39.18367,
		"Area Longitude": -106.47574
	},
	{
		"Route": "Massive Penetration",
		"Location": "A Massive Pain in the ASS > Leadville > Colorado",
		"URL": "https://www.mountainproject.com/route/117693798/massive-penetration",
		"Avg Stars": 3.7,
		"Your Stars": -1,
		"Route Type": "Trad, TR, Alpine",
		"Rating": "5.9- R",
		"Pitches": 1,
		"Length": 75,
		"Area Latitude": 39.18367,
		"Area Longitude": -106.47574
	},
	{
		"Route": "Massive Commitment Issues",
		"Location": "A Massive Pain in the ASS > Leadville > Colorado",
		"URL": "https://www.mountainproject.com/route/117693773/massive-commitment-issues",
		"Avg Stars": 3,
		"Your Stars": -1,
		"Route Type": "Trad, TR, Alpine",
		"Rating": "5.7 X",
		"Pitches": 1,
		"Length": 75,
		"Area Latitude": 39.18367,
		"Area Longitude": -106.47574
	},
	{
		"Route": "A Massive Disappointment",
		"Location": "A Massive Pain in the ASS > Leadville > Colorado",
		"URL": "https://www.mountainproject.com/route/117666078/a-massive-disappointment",
		"Avg Stars": 3,
		"Your Stars": -1,
		"Route Type": "TR, Alpine",
		"Rating": 5.5,
		"Pitches": 1,
		"Length": 40,
		"Area Latitude": 39.18367,
		"Area Longitude": -106.47574
	},
	{
		"Route": "Hero Loop",
		"Location": "Southwest TR > Gold Butte > Colorado",
		"URL": "https://www.mountainproject.com/route/116837136/hero-loop",
		"Avg Stars": 3.1,
		"Your Stars": -1,
		"Route Type": "Sport",
		"Rating": "5.9+",
		"Pitches": 1,
		"Length": 50,
		"Area Latitude": 39.2158,
		"Area Longitude": -106.84409
	},
	{
		"Route": "Eenie",
		"Location": "Southwest TR > Gold Butte > Colorado",
		"URL": "https://www.mountainproject.com/route/113496748/eenie",
		"Avg Stars": 3,
		"Your Stars": -1,
		"Route Type": "Sport, TR",
		"Rating": "5.8+",
		"Pitches": 1,
		"Length": "",
		"Area Latitude": 39.2158,
		"Area Longitude": -106.84409
	},
	{
		"Route": "Mo's Crack",
		"Location": "Southwest TR > Gold Butte > Colorado",
		"URL": "https://www.mountainproject.com/route/117610261/mos-crack",
		"Avg Stars": 2.9,
		"Your Stars": -1,
		"Route Type": "Trad, TR",
		"Rating": "5.9-",
		"Pitches": 1,
		"Length": 60,
		"Area Latitude": 39.2158,
		"Area Longitude": -106.84409
	},
	{
		"Route": "Just Another Crack",
		"Location": "Little Snake Canyon > Cross Mountain Boulders > Colorado",
		"URL": "https://www.mountainproject.com/route/113830109/just-another-crack",
		"Avg Stars": 3,
		"Your Stars": -1,
		"Route Type": "Trad, TR",
		"Rating": "5.8+",
		"Pitches": 1,
		"Length": 35,
		"Area Latitude": 40.53513,
		"Area Longitude": -108.42453
	},
	{
		"Route": "Air Time",
		"Location": "G. Pumphouse Right > Dolores River Canyon (Dove Creek) > Four Corners Area > Colorado",
		"URL": "https://www.mountainproject.com/route/109583726/air-time",
		"Avg Stars": 2.8,
		"Your Stars": -1,
		"Route Type": "Sport",
		"Rating": 5.8,
		"Pitches": 1,
		"Length": 80,
		"Area Latitude": 37.81082,
		"Area Longitude": -108.81875
	}
]
